,Brand,Store_ID,Store_Name,Ownership_Type,Street_Address,City,State,Country,Postcode,Phone_Number,Timezone,Longitude,Latitude,Revenue,Profits,Selling_Price,Cost_Price,Gross_Profit_Margin,Number_of_Employees,Customers,Best_Selling_Item
0,McDonald's,23149-228271,Banjara Hills,Joint Venture,"Lower Ground Floor, GVK One, Road Number 1, Banjara Hills",Hyderabad,AP,IN,500034,,GMT+05:30 Asia/New_Delhi,78.45,17.42,2.1173436689352094,0.17158386520911598,1.655165418717746,0.9074330009722328,0.7477324177455131,34.31119724112674,3979.583117160558,Egg & Cheese Muﬃn
1,McDonald's,23191-228548,Kukatpally,Joint Venture,"Upper Ground Floor, Forum Sujana Mall, Kukatpally",Hyderabad,AP,IN,500072,,GMT+05:30 Asia/New_Delhi,78.39,17.48,1.0585039826654867,0.054645385206974616,0.895943975903523,0.45364456399949427,0.44229941190402877,25.4875331888791,1156.0106204412978,Sausage McMuﬀm
2,McDonald's,23193-228546,Madhapur,Joint Venture,"Lower Ground Floor, Inorbit Mall, Madhapur",Hyderabad,AP,IN,500081,,GMT+05:30 Asia/New_Delhi,78.39,17.43,4.505020294808801,0.663867335902395,2.8643113440311803,1.9307229834894861,0.9335883605416941,54.20850245674001,10346.720786156804,Sausage & Egg McMuﬀm
3,McDonald's,23180-228545,Jubilee Hills,Joint Venture,"Ground Floor, Road No. 92, Near Apollo hospital, Jubilee Hills",Hyderabad,AP,IN,500033,,GMT+05:30 Asia/New_Delhi,78.42,17.42,3.40552995391705,0.3978349508377753,2.3940718639172633,1.459512837393022,0.9345590265242413,45.046082949308754,7414.746543778802,Veg McMuﬀm
4,McDonald's,24457-238129,Hi-Tech City,Joint Venture,"Upper Ground Floor, Phoenix tower A, Opposite Trident Hotel, Madhapur Village",Hyderabad,AP,IN,500084,,GMT+05:30 Asia/New_Delhi,78.38,17.45,7.332712790307322,1.6565235304828456,3.3950525116327688,3.142591195845995,0.25246131578677383,77.77260658589435,17887.23410748619,Veg Supreme Muﬃn
5,McDonald's,23664-232349,Mindspace,Joint Venture,"Mindspace, Hitech City",Hyderabad,AP,IN,500081,,GMT+05:30 Asia/New_Delhi,78.38,17.45,3.119602038636433,0.33965551417704815,2.2475758259014698,1.336972302272757,0.9106035236287127,42.66335032197027,6652.272103030488,Hot Cakes with Maple Syrup
6,McDonald's,20874-208485,Punjabi Bagh,Joint Venture,"1/83, Ground Floor , Club Road, West Punjabi Bagh",Delhi,DL,IN,110026,,GMT+05:30 Asia/New_Delhi,77.13,28.67,5.195257423627431,0.8651918232404966,3.084025115553241,2.226538895840328,0.8574862197129135,59.960478530228585,12187.353129673147,Hash Brown
7,McDonald's,29491-254065,T3 Domestic Arrivals,Joint Venture,IGI Airport,Delhi,DL,IN,110037,,GMT+05:30 Asia/New_Delhi,77.12,28.57,7.731528672139652,1.8322710707174792,3.3912711696756115,3.3135122880598504,0.07775888161576121,81.09607226783044,18950.74312570574,McEgg Burger
8,McDonald's,22446-221249,HUDA Metro Station,Joint Venture,"Ground Floor, South Wing, HUDA Metro Station",Gurgaon,DL,IN,122009,,GMT+05:30 Asia/New_Delhi,77.07,28.46,2.114047669911802,0.17112321351636,1.653014693379338,0.9060204299622008,0.746994263417137,34.283730582598345,3970.793786431471,Chicken Maharaja Mac
9,McDonald's,23392-229965,R K Puram,Joint Venture,"Sangam Courtyard, Major Somnath Marg, Sector 9, R.K Puram",New Delhi,DL,IN,110021,,GMT+05:30 Asia/New_Delhi,77.17,28.57,4.654164250618,0.7051271186729168,2.9167180195128624,1.994641821693428,0.9220761978194343,55.45136875515,10744.438001647999,McChicken
10,McDonald's,25522-241268,Indira Gandhi International Airport,Joint Venture,"Domestic Departure, Terminal 1D",New Delhi,DL,IN,110037,,GMT+05:30 Asia/New_Delhi,77.12,28.56,6.478225043488876,1.3097216596910433,3.337708390429026,2.7763821614952326,0.5613262289337935,70.65187536240731,15608.600115970337,Filet-0-Fish
11,McDonald's,23666-232345,Subhash Nagar,Joint Venture,"Ground Floor, Pacific Mall, Subhash Nagar",New Delhi,DL,IN,110018,,GMT+05:30 Asia/New_Delhi,77.11,28.64,5.646809289834284,1.01121951632295,3.196253982330423,2.4200611242146937,0.7761928581157294,63.72341074861904,13391.49143955809,Chicken McGrill
12,McDonald's,18971-197487,Vasant Kunj - Ambience Mall,Joint Venture,"1st Floor, Ambience Mall, Nelson Mandela Marg",New Delhi,DL,IN,110070,,GMT+05:30 Asia/New_Delhi,77.16,28.54,7.803765984069338,1.8650493422603656,3.3885067917337603,3.344471136029717,0.0440356557040438,81.69804986724449,19143.375957518238,McVeggie
13,McDonald's,19363-201204,Saket,Joint Venture,"Ground Floor, Select City Walk Mall",New Delhi,DL,IN,110017,,GMT+05:30 Asia/New_Delhi,77.22,28.53,2.0939970091860713,0.1683339189396964,1.6399025071512963,0.8974272896511734,0.7424752175001229,34.11664174321726,3917.3253578295235,McAloo Tikki
14,McDonald's,19063-198205,Connaught Place - A Block,Joint Venture,"Hamilton House, A Block, Inner Circle",New Delhi,DL,IN,110001,,GMT+05:30 Asia/New_Delhi,77.22,28.63,4.74123355815302,0.7297856249855212,2.9460558408587527,2.031957239208437,0.9140986016503161,56.176946317941834,10976.622821741386,McSpicy Paneer Burger
15,McDonald's,22570-222670,Connaught Place - N Block,Joint Venture,"N 16, N Block, Outer Circle, Connaught Place",New Delhi,DL,IN,110001,,GMT+05:30 Asia/New_Delhi,77.22,28.63,2.831476790673544,0.2856233957961607,2.0898462482950486,1.2134900531458046,0.8763561951492438,40.262306588946196,5883.938108462782,BigSpicy Paneer Wrap
16,McDonald's,24736-238828,Vasant Kunj - DLF Promenade,Joint Venture,"First Floor, DLF Promenade, Vasant Kunj",New Delhi,DL,IN,110070,,GMT+05:30 Asia/New_Delhi,77.16,28.54,7.04788354136784,1.536415812382721,3.385853412471141,3.0205215177290743,0.3653318947420665,75.39902951139867,17127.68944364757,McSpicy Chicken Burger
17,McDonald's,21764-215225,Pitampura,Joint Venture,"Ground Floor, HB Twin Towers, Netaji Subhash Pl, Pitampura",New Delhi,DL,IN,110034,,GMT+05:30 Asia/New_Delhi,77.15,28.69,1.3054292428357799,0.07634691395331726,1.0852488624250507,0.5594696755010484,0.5257791869240023,27.545243690298165,1814.477980895413,BigSpicy Chicken Wrap
18,McDonald's,20176-203905,Greater Kailash 1,Joint Venture,"M Block Market, Greater Kailash 1",New Delhi,DL,IN,110048,,GMT+05:30 Asia/New_Delhi,77.24,28.55,4.206732383190404,0.5850550902870874,2.7513418892311963,1.8028853070816018,0.9484565821495943,51.722769859920035,9551.286355174412,Regular Fries
19,McDonald's,19513-197406,Indira Gandhi Itnl Arpt-T3Gate15,Joint Venture,"International Departure, Near Gate 15, Terminal  3",New Delhi,DL,IN,110037,,GMT+05:30 Asia/New_Delhi,77.1,28.56,5.798150578325754,1.0626964053222188,3.2282924634838426,2.4849216764253232,0.7433707870585192,64.98458815271462,13795.068208868677,Medium Fries
20,McDonald's,19514-197404,Indira Gandhi Itnl Arpt-T3Gate27,Joint Venture,"Domestic Departure, Near Gate 27, Terminal  3",New Delhi,DL,IN,110037,,GMT+05:30 Asia/New_Delhi,77.1,28.56,9.686056093020417,2.8213479864320634,3.0916482791490605,4.15116689700875,-1.0595186178596896,97.38380077517014,24162.816248054445,Large Fries
21,McDonald's,27717-248629,Hauz Khas,Joint Venture,"Ground Floor, Power House, Hauz Khas Village, Hauz Khas",New Delhi,DL,IN,110016,,GMT+05:30 Asia/New_Delhi,77.19,28.55,1.8965117343668936,0.14205461516902326,1.5081311116203668,0.8127907433000972,0.6953403683202696,32.47093111972411,3390.697958311716,Veg Pizza McPuﬀ
22,McDonald's,22572-222668,Greater Kailash 2,Joint Venture,"Ground Floor, M-11, M-Block, Main Mrkt, Greater Kailash Pt2",New Delhi,DL,IN,110048,,GMT+05:30 Asia/New_Delhi,77.24,28.53,9.560533463545639,2.7514507466225693,3.1249204824341605,4.097371484376702,-0.9724510019425414,96.33777886288033,23828.089236121705,4 piece Chicken Nuggets
23,McDonald's,25654-241824,M G Road,Joint Venture,"Upper Ground Floor, MGF Metropolis, M G Road",Gurgaon,HR,IN,122002,,GMT+05:30 Asia/New_Delhi,77.08,28.48,5.429548020874661,0.9395452813245463,3.1453664811256714,2.3269491518034258,0.8184173293222454,61.91290017395551,12812.128055665762,6 piece Chicken Nuggets
24,McDonald's,21333-211367,Sector 29,Joint Venture,"SCO 39, Ground Floor, Sector 29",Gurgaon,HR,IN,122001,,GMT+05:30 Asia/New_Delhi,77.06,28.47,5.4962920010986664,0.961284982283892,3.161613360030157,2.355553714756571,0.8060596452735863,62.469100009155554,12990.112002929778,9 piece Chicken Nuggets
25,McDonald's,29490-254064,One Horizon Center,Joint Venture,Golf Course Road,Gurgaon,HR,IN,122003,,GMT+05:30 Asia/New_Delhi,77.09,28.48,4.000732444227424,0.5335123901576633,2.666975888111468,1.71459961895461,0.9523762691568579,50.0061037018952,9001.953184606464,Chicken Wings 2 Piece*
26,McDonald's,21652-213925,DLF Cyber Hub,Joint Venture,"Ground Floor, DLF Cyber Hub, Phase II",Gurgaon,HR,IN,122002,,GMT+05:30 Asia/New_Delhi,77.09,28.5,5.6899319437238685,1.0257575299774548,3.205668100024513,2.4385422615959436,0.7671258384285695,64.0827661976989,13506.485183263649,Chicken Wings 4 Piece*
27,McDonald's,18973-197486,Ambience Island,Joint Venture,"Ground Floor, Ambience Mall, Ambience Island, NH 8",Gurgaon,HR,IN,110011,,GMT+05:30 Asia/New_Delhi,77.1,28.5,6.568315683462019,1.344372874010632,3.347962733300148,2.8149924357694363,0.5329702975307117,71.40263069551682,15848.841822565384,Ketchup
28,McDonald's,24737-238830,Sohna Road -,Joint Venture,"Grd Flr, Block C, Vatika Business Park, Sector 49, Sohna Road",Gurgaon,HR,IN,122001,,GMT+05:30 Asia/New_Delhi,77.05,28.41,6.9396649067659535,1.4919633595447688,3.379758919496824,2.974142102899694,0.40561681659712967,74.49720755638295,16839.106418042546,Barbecue Sauce
29,McDonald's,21816-215552,Malleswaram - Orion Mall,Joint Venture,"Grd Flr Orion Mall, Brigade Gateway, Dr Rajkumar Road, Malleswaram",Bangalore,KA,IN,560055,,GMT+05:30 Asia/New_Delhi,77.56,13.01,1.7767571031830804,0.12717420795161102,1.425903561562213,0.7614673299356058,0.6644362316266073,31.472975859859005,3071.3522751548817,Mustard Sauce
30,McDonald's,23293-229025,JP Nagar,Joint Venture,"100 feet ring road, K.A.S Officer, KAS Off HBCS layout,4th Phase,JP Nagar",Bangalore,KA,IN,560078,,GMT+05:30 Asia/New_Delhi,77.59,12.91,1.0010986663411359,0.050085485356191936,0.8508666519038682,0.4290422855747725,0.42182436632909576,25.0091555528428,1002.9297769096958,Cheese Slice
31,McDonald's,21965-216488,Mahadevapura,Joint Venture,"Upper Ground Floor, Phoenix Market City,, Whitefield Road, Mahadevapura",Bangalore,KA,IN,560048,,GMT+05:30 Asia/New_Delhi,77.7,13.0,6.8512222663045135,1.4561173432041767,3.373715220603144,2.9362381141305054,0.43747710647263843,73.76018555253762,16603.259376812035,Chilli Sauce
32,McDonald's,21606-213485,Koramangala,Joint Venture,"Ground Floor, 7th block, Near Forum Mall, Koramangla Industrial Layout",Bangalore,KA,IN,560095,,GMT+05:30 Asia/New_Delhi,77.61,12.94,2.035218359935301,0.16028579057127712,1.6011808862810795,0.8722364399722718,0.7289444463088076,33.6268196661275,3760.5822931608022,Regular Strawberry Milkshake
33,McDonald's,22449-221247,Indiranagar,Joint Venture,"Grd Flr, Samrat Bldg, HAL II Stage, 100 ft Rd, Indiranagar",Bangalore,KA,IN,560038,,GMT+05:30 Asia/New_Delhi,77.64,12.97,2.8680074465163123,0.29221868529127965,2.1104060410148446,1.229146048506991,0.8812599925078536,40.566728720969266,5981.353190710166,Medium Strawberry Milkshake
34,McDonald's,23150-228269,Malleswaram - Mantri Mall,Joint Venture,"Upper grd flr,Mantri Mall,Mantri Sq No1, Sampangiram Nagar, Malleswaram",Bangalore,KA,IN,560003,,GMT+05:30 Asia/New_Delhi,77.57,12.99,7.952909939878537,1.933641790658935,3.3807816028337374,3.4083899742336583,-0.027608371399920898,82.94091616565447,19541.09317300943,Large Strawberry Milkshake
35,McDonald's,23148-228268,Sadashiv Nagar,Joint Venture,"403, Ground Floor, 8th Main Road, Sadashiv Nagar",Bangalore,KA,IN,560080,,GMT+05:30 Asia/New_Delhi,77.58,13.01,2.2362743003631707,0.18860950518764788,1.7318824169358182,0.9584032715842158,0.7734791453516024,35.30228583635975,4296.731467635122,Regular Chocolate Milkshake
36,McDonald's,24432-237928,Whitefield,Joint Venture,"Ground floor, Prestige Shantiniketan, Crescent 4, Whitefield Main Road",Bangalore,KA,IN,560048,,GMT+05:30 Asia/New_Delhi,77.73,12.99,6.413403729361859,1.2850686216467242,3.3297166125645896,2.748601598297939,0.5811150142666507,70.11169774468215,15435.743278298289,Medium Chocolate Milkshake
37,McDonald's,22445-221246,Benniganahalli,Joint Venture,"Ground Floor, RMZ Infinity, The Bay, #3 Old Madras Road, Benniganahalli",Bangalore,KA,IN,560016,,GMT+05:30 Asia/New_Delhi,77.66,12.99,8.378917813653981,2.136372166080311,3.343742335731138,3.590964777280277,-0.2472224415491391,86.49098178044984,20677.11416974395,Large Chocolate Milkshake
38,McDonald's,21743-215051,Church Street,Joint Venture,"Ground Floor, Prestige RR Building, 55 and 51/1 Church Street",Bangalore,MH,IN,560001,,GMT+05:30 Asia/New_Delhi,77.61,12.97,9.754173406170842,2.859645487849644,3.072786396654794,4.180360031216075,-1.1075736345612817,97.95144505142369,24344.46241645558,Regular Coca-Cola
39,McDonald's,22456-221251,Prabhadevi,Joint Venture,"Upper Ground Floor, Century Bhavan, Century Bazaar, Prabhadevi",Mumbai,MH,IN,400030,,GMT+05:30 Asia/New_Delhi,72.82,19.01,7.0283822138126775,1.5283572865135704,3.3848608949303154,3.012163805919719,0.3726970890105963,75.23651844843897,17075.68590350047,Medium Coca-Cola
40,McDonald's,19524-202205,Malad West - Infiniti Mall,Joint Venture,"Upper Ground Floor, Infiniti Mall, Link Road,  Malad (West)",Mumbai,MH,IN,400064,,GMT+05:30 Asia/New_Delhi,72.83,19.18,8.856563005462812,2.3756655187250764,3.275836344049132,3.7956698594840623,-0.5198335154349306,90.47135837885678,21950.834681234166,Large Coca-Cola
41,McDonald's,21450-211905,Santacruz West,Joint Venture,"Grd Flr Red Chillies Entertainment Bldg, Jct of 15th Rd and Ram Krishna MissionRd",Mumbai,MH,IN,400054,,GMT+05:30 Asia/New_Delhi,72.83,19.08,6.3664357432782985,1.267351462997615,3.323605094952413,2.7284724614049853,0.5951326335474281,69.7202978606525,15310.495315408796,Regular Fanta Orange
42,McDonald's,22539-222210,Nariman Point,Joint Venture,"Ground Floor, Shree Nirmal Building, Behind Trident Hotel, Nariman Point",Mumbai,MH,IN,400021,,GMT+05:30 Asia/New_Delhi,72.82,18.93,3.513199255348369,0.4209202336683064,2.4466467710641604,1.5056568237207295,0.940989947343431,45.943327127903075,7701.864680928983,Medium Fanta Orange
43,McDonald's,24458-238127,Andheri West - Four Bunglows,Joint Venture,"Kokilaben Dhirubhai Ambani Hospital, Four Bunglows, Andheri (West)",Mumbai,MH,IN,400053,,GMT+05:30 Asia/New_Delhi,72.82,19.13,6.564470351268044,1.3428846464914341,3.3475453149361667,2.813344436257733,0.5342008786784336,71.37058626056702,15838.58760338145,Large Fanta Orange
44,McDonald's,20778-207865,Bandra West - Chapel road,Joint Venture,"Reclamation, Chapel Road, Near Lilavati Hospital",Mumbai,MH,IN,400050,,GMT+05:30 Asia/New_Delhi,72.83,19.05,1.871242408520768,0.13884839106286723,1.4909262518416293,0.8019610322231863,0.6889652196184431,32.26035340433973,3323.313089388714,Regular Thums-up
45,McDonald's,22452-221250,Andheri West - Infiniti Mall,Joint Venture,"Ground Floor, Infiniti Mall, New Link Road, Andheri (West)",Mumbai,MH,IN,400053,,GMT+05:30 Asia/New_Delhi,72.83,19.14,7.257728812524796,1.6244669601714563,3.393592347646601,3.1104552053677694,0.28313714227883097,77.1477401043733,17687.276833399457,Medium Thums-up
46,McDonald's,19034-197924,Ghatkopar West,Joint Venture,"Gound Floor, R City Mall, Lal Bahadur Shastri Marg",Mumbai,MH,IN,400086,,GMT+05:30 Asia/New_Delhi,72.92,19.1,7.611224707785272,1.778325592184145,3.3944594166687425,3.2619534461936874,0.1325059704750548,80.09353923154393,18629.93255409406,Large Thums - up
47,McDonald's,21329-210768,Thane West - Viviana Mall,Joint Venture,"Ground Floor, Viviana Mall, Thane West, Opp Eastern Express Highway",Mumbai,MH,IN,400606,,GMT+05:30 Asia/New_Delhi,72.97,19.21,8.21439252906888,2.0568821845799374,3.3606760218302636,3.52045394102952,-0.1597779191992562,85.11993774224067,20238.380077517013,Regular Sprite
48,McDonald's,18409-190784,Elphinstone Road (West),Joint Venture,"First Floor, Tower 2 Lobby, Indiabulls Finance Centre",Mumbai,MH,IN,400013,,GMT+05:30 Asia/New_Delhi,72.84,19.01,5.313089388714255,0.9022052878733172,3.1157141798443866,2.277038309448966,0.8386758703954201,60.942411572618795,12501.571703238013,Medium Sprite
49,McDonald's,23292-229027,Chhatrapati Shivaji Intnl-T2Arrival,Joint Venture,"International Arrivals, Andheri (East)",Mumbai,MH,IN,400099,,GMT+05:30 Asia/New_Delhi,72.87,19.1,1.096957304605243,0.05780225477252762,0.9259140519214726,0.47012455911653267,0.45578949280493986,25.807977538377024,1258.5528122806481,Large Sprite
50,McDonald's,26082-243524,Bandra East - One BKC,Joint Venture,"A wing, Ground Floor, One BKC, G Block,BandraBurlaComplex,BandraEast",Mumbai,MH,IN,400051,,GMT+05:30 Asia/New_Delhi,72.85,19.06,6.586443678090762,1.3513998685315105,3.349906220197809,2.8227615763246123,0.5271446438731966,71.55369731742302,15897.183141575366,Diet Coke
51,McDonald's,20457-205766,Thane West - Korum Mall,Joint Venture,"Upper Ground Level, Korum Mall, Off Eastern Express highway",Mumbai,MH,IN,400601,,GMT+05:30 Asia/New_Delhi,72.97,19.2,9.849757377849667,2.9138201751328796,3.0453626974433448,4.221324590506999,-1.1759618930636542,98.74797814874722,24599.35300759911,Kinley Water
52,McDonald's,24734-238829,Vikhroli East,Joint Venture,"Ground Floor, Godrej One Building, Pirojshanagar, Vikhroli (East)",Mumbai,MH,IN,400079,,GMT+05:30 Asia/New_Delhi,72.92,19.09,4.600054933317057,0.6900152593385621,2.8980191654395377,1.971452114278739,0.9265670511607988,55.00045777764214,10600.146488845485,Minute Maid Nimbu Fresh
53,McDonald's,21967-216487,Lower Parel - High Street Phoenix,Joint Venture,"First floor, High Street Phoenix Mall, Senapati Bapat Marg, Lower Parcel",Mumbai,MH,IN,400013,,GMT+05:30 Asia/New_Delhi,72.82,19.0,9.027680288094729,2.4644765448480532,3.2447246779052232,3.8690058377548837,-0.6242811598496605,91.89733573412275,22407.147434919276,Minute Maid Pulpy Orange
54,McDonald's,24199-236567,Bandra West - Link corner,Joint Venture,"Off Linking Road, Corner of 24th & 33rd Rd, Bandra West",Mumbai,MH,IN,400050,,GMT+05:30 Asia/New_Delhi,72.83,19.07,9.312784203619495,2.6160604718355662,3.1849397974364697,3.99119323012264,-0.8062534326861706,94.27320169682912,23167.424542985318,Cold Coﬀee
55,McDonald's,25658-242046,Vile Parle West,Joint Venture,"Grd Flr, Tian Star, 48 Gulmohar Road, Juhu Scheme, Vile Parle (West)",Mumbai,MH,IN,400049,,GMT+05:30 Asia/New_Delhi,72.83,19.11,6.441419721060823,1.2956951055477763,3.333233700013283,2.76060845188321,0.5726252481300729,70.34516434217353,15510.45258949553,Ice Tea
56,McDonald's,23290-229028,Chhatrapati Shivaji International A,Joint Venture,"T2 Departure SHA, Level P9, Food Court, Andheri (East)",Mumbai,MH,IN,400099,,GMT+05:30 Asia/New_Delhi,72.88,19.1,8.547563097018342,2.2194134826423464,3.322950911324446,3.663241327293575,-0.3402904159691292,87.89635914181952,21126.834925382245,McFloat Coke
57,McDonald's,19530-197407,Bandra East - FIFC,Joint Venture,"First International Financial Centre, Bandra Kurla Complex Road, Bandra (East)",Mumbai,MH,IN,400051,,GMT+05:30 Asia/New_Delhi,72.87,19.07,9.917874691000092,2.9527371705327843,3.025137928187963,4.250517724714325,-1.2253797965263626,99.31562242500077,24780.999176000245,McFloat Fanta
58,McDonald's,18224-189164,Colaba,Joint Venture,"Hotel Taj Mahal Palace, Apollo Bunder, Apollo Bunder, Opp. Gateway of India",Mumbai,MH,IN,400005,,GMT+05:30 Asia/New_Delhi,72.83,18.92,4.744529557176428,0.7307273434628303,2.947148219271144,2.033369810218469,0.9137784090526747,56.20441297647023,10985.412152470473,McFloat Sprite
59,McDonald's,24456-238128,Kurla West,Joint Venture,"First Floor, Phoenix Market City, Lal Bahadur Shastri Marg, Kurla (West)",Mumbai,MH,IN,400070,,GMT+05:30 Asia/New_Delhi,72.89,19.09,6.941587572862942,1.492747446944877,3.3798796866696943,2.974966102655546,0.404913584014148,74.51322977385784,16844.23352763451,McFloat Cold Coﬀee
60,McDonald's,26081-243527,Malad West - Inorbit Mall,Joint Venture,"Ground Floor, Inorbit Mall, Link Road,  Malad (West)",Mumbai,MH,IN,400064,,GMT+05:30 Asia/New_Delhi,72.84,19.17,4.349559007538072,0.6221752990579453,2.806790989309069,1.8640967175163163,0.9426942717927524,52.912991729483934,9932.157353434859,SoG Serve cone
61,McDonald's,21709-214285,Bandra East - The Capital,Joint Venture,"Ground Floor, The Capital, Bandra Kurla Complex, Bandra (East)",Mumbai,MH,IN,400051,,GMT+05:30 Asia/New_Delhi,72.86,19.06,4.536057618945891,0.6723518004876049,2.8754413531153244,1.9440246938339534,0.931416659281371,54.46714682454909,10429.486983855708,McSwirl ChocoDip
62,McDonald's,18649-193713,Powai,Joint Venture,"Prudential Bldg Hiranandani Bus Park, Gr Fl, Central Avenue Road",Mumbai,MH,IN,400076,,GMT+05:30 Asia/New_Delhi,72.91,19.12,9.021088290047913,2.4610251269132757,3.2459894792367905,3.8661806957348195,-0.620191216498029,91.84240241706595,22389.568773461102,McSwirl Butterscotch ChocoDip
63,McDonald's,17857-186566,Goregaon East - Oberoi Mall,Joint Venture,"Off Western Express Highway, Goregaon (East)",Mumbai,MH,IN,400063,,GMT+05:30 Asia/New_Delhi,72.86,19.17,2.1014130069887385,0.16936297309812345,1.6447579458933175,0.900605574423745,0.7441523714695725,34.17844172490616,3937.10135196997,Regular SoG Serve - Hot Fudge
64,McDonald's,19618-200365,Chhatrapati Shivaji DomesticAirport,Joint Venture,"Domestic Arrivals, Terminal 1B, Santa Cruz (East)",Mumbai,MH,IN,400099,,GMT+05:30 Asia/New_Delhi,72.86,19.09,5.7456892605365155,1.0447082357520519,3.2175035714605413,2.4624382545156496,0.7550653169448915,64.54741050447096,13655.171361430708,Medium soG Serve - Hot Fudge
65,McDonald's,21105-209366,Juhu,Joint Venture,"Ground Floor, Hotel Bawa Continental, Juhu Tara Road",Mumbai,MH,IN,400049,,GMT+05:30 Asia/New_Delhi,72.83,19.1,7.180272835474716,1.5916815627843302,3.391362483930201,3.077259786632021,0.31410269729817986,76.50227362895596,17480.727561265907,Regular SoG Serve - Strawberry
66,McDonald's,21818-215805,Kandivali West,Joint Venture,"Ground Floor, V Souk, Sector 10, Mahavir Nagar, Kandivali (West)",Mumbai,MH,IN,400067,,GMT+05:30 Asia/New_Delhi,72.84,19.21,6.201361125522629,1.2060546863767054,3.299986370472972,2.6577261966525554,0.6422601738204164,68.3446760460219,14870.296334727012,Medium SoG Serve - Strawberry
67,McDonald's,22047-217305,Vashi,Joint Venture,"Ground Floor, Inorbit Mall, Sector 30A, Vashi",Navi Mumbai,MH,IN,400705,,GMT+05:30 Asia/New_Delhi,73.0,19.07,8.389355143894774,2.1414656623752637,3.342556480913402,3.595437918812046,-0.25288143789864376,86.57795953245643,20704.947050386058,Walnut Brownie with Hot Fudge -Regular
68,McDonald's,20477-206185,Viman Nagar,Joint Venture,"Ground floor, Phoenix Market City, Viman Nagar",Pune,MH,IN,411014,,GMT+05:30 Asia/New_Delhi,73.92,18.56,7.899075289162877,1.908740295977608,3.383883626445624,3.3853179810698046,-0.0014343546241810546,82.49229407635731,19397.53410443434,Walnut Brownie with Hot Fudge - Medium
69,McDonald's,25677-236568,Sangam Solitaire,Joint Venture,"Sangam Press Road, Kothrud",Pune,MH,IN,411029,,GMT+05:30 Asia/New_Delhi,73.82,18.5,2.1670583208716088,0.17860523396544897,1.6874444733127565,0.9287392803735467,0.7587051929392099,34.725486007263406,4112.15552232429,McFlurry-Oreo Small
70,McDonald's,21819-215804,Aundh,Joint Venture,"Ground floor, Centriole, Anand Park, ITI Road, Aundh",Pune,MH,IN,411008,,GMT+05:30 Asia/New_Delhi,73.81,18.56,3.417340617084262,0.40033581630114595,2.3999081965383704,1.4645745501789693,0.9353336463594013,45.14450514236885,7446.241645558031,McFlurry - Oreo Regular
71,McDonald's,21828-215807,Magarpatta,Joint Venture,"First Floor, Seasons Mall, Magarpatta City, Hadapsar",Pune,MH,IN,411028,,GMT+05:30 Asia/New_Delhi,73.93,18.52,2.654866176335948,0.2547835376478171,1.988147746457312,1.137799789858263,0.850347956599049,38.79055146946623,5412.976470229194,McFlurry ChocoCrunch Small
72,McDonald's,20455-205764,Koregaon Park,Joint Venture,"1 Galaxy Gardens, North Main Road",Pune,MH,IN,411001,,GMT+05:30 Asia/New_Delhi,73.89,18.54,9.016968291268654,2.4588692166322024,3.246777283027063,3.8644149819722795,-0.6176376989452164,91.80806909390546,22378.582110049745,McFlurry ChocoCrunch Regular
73,McDonald's,22444-221266,Kharadi,Joint Venture,"Ground Floor, EON Free Zone, Cluster A, MIDC, Kharadi Knowledge Park",Pune,MH,IN,411014,,GMT+05:30 Asia/New_Delhi,73.95,18.55,6.093691824091311,1.1668898196186206,3.2827865479666936,2.6115822103248476,0.671204337641846,67.4474318674276,14583.17819757683,Black Tea
74,McDonald's,21335-210964,Hadapsar,Joint Venture,"Ground Floor, West Block, Amanora Town Centre, Hadapsar",Pune,MH,IN,411028,,GMT+05:30 Asia/New_Delhi,73.94,18.52,2.7238074892422253,0.26661592305127263,2.0283001589597367,1.1673460668180966,0.8609540921416399,39.36506241035188,5596.819971312601,Tea with Milk
75,McDonald's,23144-228270,FC Road,Joint Venture,"Mosaic Ground Floor West, Across Fergusson College Gate 2, FC Rd",Pune,MH,IN,411004,,GMT+05:30 Asia/New_Delhi,73.84,18.52,7.709280678731651,1.822234253512513,3.3919940938548563,3.3039774337421357,0.08801666011272045,80.91067232276376,18891.4151432844,Black coﬀee
76,McDonald's,26083-243525,Numgambakkam,Joint Venture,"Ground Floor, Bergamo Mall, Khadar Nawas Khan Road",Chennai,TN,IN,600006,,GMT+05:30 Asia/New_Delhi,80.25,13.06,2.2494582964568006,0.1905452573517715,1.7402803984246316,0.9640535556243433,0.7762268428002882,35.412152470473345,4331.888790551469,Coﬀee with Milk
77,McDonald's,25647-242045,Royapettah,Joint Venture,"Ground Floor, Express Avenue Mall, Whites Road, Royapettah",Chennai,TN,IN,600014,,GMT+05:30 Asia/New_Delhi,80.26,13.06,3.2654499954222236,0.3687645463594661,2.3235499936145096,1.3994785694666672,0.9240714241478425,43.87874996185187,7041.199987792596,Masala Veg
78,McDonald's,25269-240401,Anna Nagar,Joint Venture,"TBR tower, Y block, 2nd Avenue, Near Ayyappa Temple, Anna Nagar",Chennai,TN,IN,600040,,GMT+05:30 Asia/New_Delhi,80.21,13.09,2.425244911038545,0.2172780224263665,1.8502234652589968,1.0393906761593763,0.8108327890996206,36.87704092532121,4800.653096102786,Masala Non Veg
79,McDonald's,23145-228267,Velachery,Joint Venture,"Upper Ground Floor, Phoenix marketcity, Velachery Main Road",Chennai,TN,IN,600042,,GMT+05:30 Asia/New_Delhi,80.22,12.99,8.46104312265389,2.1766134783758835,3.3340517453207905,3.6261613382802382,-0.2921095929594478,87.17535935544907,20896.114993743704,Saucy Aloo Wrap
80,McDonald's,27719-248626,Alwarpet,Joint Venture,"Ground Floor, MGN Splendor, Off Chamiers Road, Alwarpet",Chennai,TN,IN,600018,,GMT+05:30 Asia/New_Delhi,80.25,13.03,7.895229956968902,1.9069677788609523,3.38409164519605,3.383669981558101,0.00042166363794915375,82.46024964140751,19387.279885250406,Saucy Chicken Wrap
81,McDonald's,25065-239844,Sector 16,Joint Venture,"Ground Floor, Gardens Galleria, Sector 16",Noida,UP,IN,201301,,GMT+05:30 Asia/New_Delhi,77.33,28.57,3.212988677632984,0.35815797735289273,2.296521580351301,1.3769951475569933,0.9195264327943078,43.441572313608205,6901.303140354626,Saucy Egg Wrap
82,McDonald's,10429-100710,Palmdale & Hwy 395,Company Owned,14136 US Hwy 395,Adelanto,CA,US,923016700,760-530-9252,GMT-08:00 America/Los_Angeles,-117.4,34.51,19.345225379192478,1.0564097730112023,16.247314863400135,8.290810876796778,7.956503986603356,62.41492965483566,1442.3963133640552,Egg McMuffin
83,McDonald's,635-352,Kanan & Thousand Oaks,Company Owned,5827 Kanan Road,Agoura,CA,US,913011651,(818) 735-0268,GMT-08:00 America/Los_Angeles,-118.76,34.16,15.22751548814356,1.937468636787601,10.355983867685095,6.526078066347239,3.8299058013378575,50.65004425183874,8414.532914212468,Egg White Delight
84,McDonald's,74510-27669,Vons-Agoura Hills #2001,Licensed,5671 Kanan Rd.,Agoura Hills,CA,US,913013358,818-991-2857,GMT-08:00 America/Los_Angeles,-118.76,34.15,28.630634479812002,4.167506156038433,18.31689555733497,12.270271919919427,6.046623637415543,88.94466994232002,10173.863948484757,Sausage McMuffin
85,McDonald's,29839-255026,Target Anaheim T-0677,Licensed,8148 E SANTA ANA CANYON ROAD,AHAHEIM,CA,US,92808,714-921-9091,GMT-08:00 America/Los_Angeles,-117.75,33.87,24.35483870967742,4.389103612308608,13.72461721421139,10.437788018433181,3.286829195778208,76.72811059907835,13500.625629444257,Sausage McMuffin with Egg
86,McDonald's,23463-230284,Safeway - Alameda 3281,Licensed,2600 5th Street,Alameda,CA,US,94501,510-523-1804,GMT-08:00 America/Los_Angeles,-122.28,37.79,39.62721640675069,11.400791399520234,12.960386671536154,16.983092745750298,-4.022706074214142,120.36347544785913,23819.299905392618,Sausage McMuffin with Egg Whites
87,McDonald's,6479-62999,Park & Central Alameda,Company Owned,1364 Park Street,Alameda,CA,US,945014542,510-521-5815,GMT-08:00 America/Los_Angeles,-122.24,37.76,23.242896816919462,6.1565976893804715,8.768666027605645,9.961241492965485,-1.1925754653598386,73.55113376262703,21628.559221167638,Steak & Egg McMuffin
88,McDonald's,5535-728,Webster & Atlantic - Alameda,Company Owned,720 Atlantic Avenue,Alameda,CA,US,945012176,510-337-1580,GMT-08:00 America/Los_Angeles,-122.28,37.78,31.314889980773337,8.065110874866306,12.319050456836527,13.420667134617144,-1.1016166777806171,96.61397137363812,20924.680318613242,"Bacon, Egg & Cheese Biscuit (Regular Biscuit)"
89,McDonald's,74877-100291,Safeway - Alameda #2708,Licensed,2227 South Shore Center,Alameda,CA,US,945018029,510-863-9000,GMT-08:00 America/Los_Angeles,-122.25,37.76,41.17816705832087,6.695175109711302,24.80165513462316,17.647785882137516,7.153869252485648,124.79476302377391,11808.679464094974,"Bacon, Egg & Cheese Biscuit (Large Biscuit)"
90,McDonald's,11161-103516,Tilden & Blanding,Company Owned,"2671 Blanding Avene, D",Alameda,CA,US,945011587,510-337-1091,GMT-08:00 America/Los_Angeles,-122.23,37.77,19.332407605212563,3.989761240550223,9.781636571793568,8.285317545091097,1.4963190267024702,62.378307443464465,16012.176885280922,"Bacon, Egg & Cheese Biscuit with Egg Whites (Regular Biscuit)"
91,McDonald's,19859-196187,Target Alameda T-2829,Licensed,2700 Fifth St,Alameda,CA,US,94501,510-241-0931,GMT-08:00 America/Los_Angeles,-122.28,37.78,29.210638752403334,5.812887693378131,15.253860276875313,12.51884517960143,2.7350150972738843,90.60182500686666,15303.903317361981,"Bacon, Egg & Cheese Biscuit with Egg Whites (Large Biscuit)"
92,McDonald's,79518-102650,Vons - San Diego #2040,Licensed,5555 Balboa Ave,San Diego,CA,US,921112703,858-279-4661,GMT-08:00 America/Los_Angeles,-117.18,32.82,36.30420850245674,9.87139427086668,13.134972766451773,15.558946501052887,-2.423973734601114,110.8691671498764,22303.14035462508,Sausage Biscuit (Regular Biscuit)
93,McDonald's,75229-94473,San Diego Conv Ctr - Lobby C,Licensed,111 West Harbor Drive,San Diego,CA,US,921017822,619-525-5821,GMT-08:00 America/Los_Angeles,-117.16,32.71,33.070925016022215,8.522674204505972,12.998204765468191,14.173253578295235,-1.1750488128270433,101.63121433149205,20940.061647389142,Sausage Biscuit (Large Biscuit)
94,McDonald's,73584-23068,Albertsons-San Dimas #6594,Licensed,SEC San Dimas & Bonita,San Dimas,CA,US,91773,909-599-8836,GMT-08:00 America/Los_Angeles,-117.8,34.11,41.45908993804743,10.005246119391577,17.789184877864056,17.768181402020325,0.021003475843731315,125.59739982299266,19367.50389110996,Sausage Biscuit with Egg (Regular Biscuit)
95,McDonald's,5317-861,San Dimas,Company Owned,942 W. Arrow Highway,San Dimas,CA,US,917732419,(909) 599-7338,GMT-08:00 America/Los_Angeles,-117.83,34.11,19.25443281350139,3.4408477060072244,10.914390547745441,8.25189977721488,2.662490770530559,62.155522324289684,13355.60167241432,Sausage Biscuit with Egg (Large Biscuit)
96,McDonald's,76658-99293,Target San Dimas T-767,Licensed,"888 W Arrow Hwy, San Dimas",San Dimas,CA,US,917732495,9093940335,GMT-08:00 America/Los_Angeles,-117.82,34.1,27.40974150822474,5.288046568754951,14.679649396634858,11.747032074953461,2.932617321681397,85.45640430921354,14720.877712332529,Sausage Biscuit with Egg Whites (Regular Biscuit)
97,McDonald's,9253-96095,"Bonita & San Dimas, San Dimas",Company Owned,"114 E. Bonita Avenue, Mission Plaza",San Dimas,CA,US,917733003,909-592-2791,GMT-08:00 America/Los_Angeles,-117.81,34.11,29.54924161503952,2.1547129872400492,23.62690337850983,12.663960692159794,10.962942686350036,91.56926175725577,3200.262459181494,Sausage Biscuit with Egg Whites (Large Biscuit)
98,McDonald's,5915-34639,Truman & Maclay,Company Owned,"1135 Truman Street, San Francisco Centre",San Fernando,CA,US,913403200,818-837-0337,GMT-08:00 America/Los_Angeles,-118.44,34.28,22.122409741508225,1.8739268312183057,17.114874323167623,9.481032746360667,7.633841576806955,70.34974211859492,4331.888790551469,Southern Style Chicken Biscuit (Regular Biscuit)
99,McDonald's,28316-250007,Teavana - San Francisco Centre,Company Owned,"865 Market St., #324",San Francisco,CA,US,94103,415-512-7205,GMT-08:00 America/Los_Angeles,-122.41,37.78,38.51954710531938,8.075621228513505,19.212398518376894,16.50837733085116,2.7040211875257345,117.19870601519821,16326.39545884579,Southern Style Chicken Biscuit (Large Biscuit)
100,McDonald's,5396-1025,Church & Market - S.F.,Company Owned,2018 Market Street,San Francisco,CA,US,941141314,(415) 431-5561,GMT-08:00 America/Los_Angeles,-122.43,37.77,16.18778038880581,2.139556526287412,10.83324481542127,6.937620166631062,3.8956246487902084,53.39365825373089,8888.424329355754,Steak & Egg Biscuit (Regular Biscuit)
101,McDonald's,611-409,120 4th Street,Company Owned,120 4th Street,San Francisco,CA,US,941033004,(415) 284-0579,GMT-08:00 America/Los_Angeles,-122.4,37.78,27.47062593462935,7.224253997659065,10.478442102394235,11.773125400555436,-1.294683298161201,85.63035981322672,21446.180608539078,"Bacon, Egg & Cheese McGriddles"
102,McDonald's,7441-1994,164 7th Avenue,Company Owned,166 7th Avenue,Brooklyn,NY,US,112152222,718-369-3098,GMT-05:00 America/New_York,-73.98,40.67,33.65947447126682,6.032038332551832,19.042611160802114,14.42548905911435,4.617122101687765,103.31278420361949,13403.942991424297,"Bacon, Egg & Cheese McGriddles with Egg Whites"
103,McDonald's,15847-160724,Target Gateway T-1401,Licensed,519 Gateway Dr,Brooklyn,NY,US,112392801,718-235-6032,GMT-05:00 America/New_York,-73.87,40.65,48.77910702841273,5.764634391353315,34.145747086298925,20.905331583605452,13.240415502693475,146.5117343668935,7545.121616260262,Sausage McGriddles
104,McDonald's,29856-255547,7th Ave and 9th St,Company Owned,444 Ninth St.,Brooklyn,NY,US,11215,9292148871,GMT-05:00 America/New_York,-73.98,40.67,18.48643452253792,5.03464365715354,6.670761095898617,7.922757652516251,-1.2519965566176334,59.961241492965485,22344.889675588245,"Sausage, Egg & Cheese McGriddles"
105,McDonald's,7381-1628,Elmwood Avenue,Company Owned,933 Elmwood Avenue,Buffalo,NY,US,142221211,(716) 882-5440,GMT-05:00 America/New_York,-78.88,42.92,48.290963469344156,8.185087663326428,28.35213207125225,20.696127201147497,7.656004870104752,145.11703848384045,12471.541489913632,"Sausage, Egg & Cheese McGriddles with Egg Whites"
106,McDonald's,7799-63000,Delaware & Kenmore,Company Owned,2730 Delaware Avenue,Buffalo,NY,US,142161146,716-877-3800,GMT-05:00 America/New_York,-78.87,42.96,32.226020081179236,6.6268546375619914,16.357899075295684,13.811151463362528,2.546747611933155,99.21720023194067,15941.1297952208,"Bacon, Egg & Cheese Bagel"
107,McDonald's,29171-154526,Hyatt Buffalo,Licensed,"2 Fountain Plaza, Walden Galleria",Buffalo,NY,US,142022220,716-856-1234,GMT-05:00 America/New_York,-78.87,42.89,32.48558000427259,3.892628469184719,22.622374171895306,13.92239143040254,8.699982741492766,99.9588000122074,7703.329569383831,"Bacon, Egg & Cheese Bagel with Egg Whites"
108,McDonald's,28439-249800,Teavana - Walden Galleria,Company Owned,"1 GALLERIA DRIVE, SPACE# L 117",BUFFALO,NY,US,14225,716-685-3100,GMT-05:00 America/New_York,-78.76,42.92,26.66951506088443,1.814295358812753,21.611284669060993,11.429792168950469,10.181492500110526,83.34147160252694,2730.7657094027527,"Steak, Egg & Cheese Bagel"
109,McDonald's,7448-6486,235 Delaware Ave,Company Owned,"235 Delaware Avenue, Parkway Plaza",Buffalo,NY,US,142022008,716-853-2356,GMT-05:00 America/New_York,-78.88,42.89,33.23862422559282,8.313307872164438,13.619801937807344,14.245124668111211,-0.6253227303038668,102.1103549302652,20210.547196874904,Big Breakfast (Regular Biscuit)
110,McDonald's,13353-105357,Canadaigua,Company Owned,10 Muar St.,Canandaigua,NY,US,144242321,585-394-6970,GMT-05:00 America/New_York,-77.26,42.88,36.65456099124118,7.397974820136872,18.91283394729042,15.709097567674794,3.203736379615627,111.87017426068911,15575.640125736258,Big Breakfast (Large Biscuit)
111,McDonald's,70083-139594,NY Chittenango Travel Plaza,Licensed,"2188 Tag Rd, Putnam Plaza",Canastota,NY,US,130324561,315-687-0015,GMT-05:00 America/New_York,-75.84,43.1,38.09869685964537,9.288468573044923,16.140118124560725,16.328012939848016,-0.18789481528729202,115.99627674184393,19604.815820795313,Big Breakfast with Egg Whites (Regular Biscuit)
112,McDonald's,17665-183831,Target Colerain T-1545,Licensed,9040 Colerain Ave,Cincinnati,OH,US,45251,,GMT-05:00 America/New_York,-84.59,39.24,18.0207220679342,2.316510007701213,12.203571168274165,7.723166600543228,4.480404567730936,58.630634479812,8540.513321329387,Big Breakfast with Egg Whites (Large Biscuit)
113,McDonald's,19787-189469,Kroger - Cincinnati #428,Licensed,4777 Kenard Avenue,Cincinnati,OH,US,45232,513-681-7650,GMT-05:00 America/New_York,-84.51,39.16,15.00427259132664,3.1691128258211916,7.432053470866953,6.430402539139989,1.0016509317269642,50.0122074037904,16476.546525467696,Big Breakfast with Hotcakes (Regular Biscuit)
114,McDonald's,75221-94079,U of Cincinnati Student Life Ctr,Licensed,45 W Charlton St,Cincinnati,OH,US,452191926,513-556-1255,GMT-05:00 America/New_York,-84.51,39.13,37.754753257850886,2.670094224740768,30.370355833107162,16.180608539078946,14.189747294028216,115.01358073671682,2989.318521683401,Big Breakfast with Hotcakes (Large Biscuit)
115,McDonald's,2212-639,Mariemont/The Strand,Company Owned,"6800 Wooster Pike, University Square",Cincinnati,OH,US,452274324,(513) 272-6839,GMT-05:00 America/New_York,-84.38,39.15,19.02584917752617,1.7110606295600144,14.500481825393088,8.153935361796929,6.346546463596159,61.50242622150334,4833.6130863368635,Big Breakfast with Hotcakes and Egg Whites (Regular Biscuit)
116,McDonald's,2420-201504,University Square,Company Owned,"234 Calhoun Street, 5107",Cincinnati,OH,US,45219,5132813100,GMT-05:00 America/New_York,-84.52,39.13,22.26447340311899,2.297724639423419,16.31890026026271,9.541917172765281,6.776983087497428,70.7556382946257,6107.3335978270825,Big Breakfast with Hotcakes and Egg Whites (Large Biscuit)
117,McDonald's,73876-103619,Kroger-Cincinnati #948,Licensed,6165 Glenway Avenue,Cincinnati,OH,US,452116338,513-719-2401,GMT-05:00 America/New_York,-84.62,39.14,42.03909421063875,5.604464161963067,28.027709285894453,18.016754661702322,10.010954624192129,127.2545548875393,8998.290963469344,Hotcakes
118,McDonald's,21456-209565,CLE C371,Licensed,Cleveland Hopkins International Airport,Cleveland,OH,US,44181,,GMT-05:00 America/New_York,-81.84,41.41,19.80773339030122,2.1883594972450777,14.201033160750002,8.489028595843381,5.712004564906621,63.73638111514634,6806.085390789514,Hotcakes and Sausage
119,McDonald's,75224-93773,CWRU - Residential Village,Licensed,1677 E 115th Street,Cleveland,OH,US,441061712,216-469-6684,GMT-05:00 America/New_York,-81.6,41.51,36.05212561418501,9.727208311293909,13.210182304771006,15.45091097750786,-2.240728672736853,110.14893032624286,22101.7181920835,Sausage Burrito
120,McDonald's,76740-99373,Target Cleveland South T-2228,Licensed,3465 Steelyard Dr,Cleveland,OH,US,441092385,216-325-1107,GMT-05:00 America/New_York,-81.69,41.46,49.04400769066439,12.4175619740728,19.763611040077652,21.018860438856166,-1.2552493987785132,147.26859340189827,20506.454664754172,Cinnamon Melts
121,McDonald's,15313-159926,Safeway-Palmer #1739,Licensed,664 W Evergreen Ave,Palmer,AK,US,996456535,907-761-1400,GMT-09:00 America/Anchorage,-149.13,61.6,38.443708609271525,2.854328333081034,30.626437932122386,16.47587511825922,14.150562813863166,116.98202459791864,3327.707754753258,Fruit & Maple Oatmeal
122,McDonald's,72980-94694,Fred Meyer - Palmer #649,Licensed,650 N Cobb St,Palmer,AK,US,996456387,907-761-4200,GMT-09:00 America/Anchorage,-149.12,61.6,45.55330057679983,11.771817009921877,17.8331711318997,19.52284310434278,-1.6896719724430815,137.29514450514236,21008.178960539568,Fruit & Maple Oatmeal without Brown Sugar
123,McDonald's,74706-97007,Safeway-Seward #2728,Licensed,1907 Seward Hwy,Seward,AK,US,99664,,GMT-09:00 America/Anchorage,-149.43,60.13,35.86947233497116,3.8908859216225085,25.874744414002794,15.372631000701924,10.50211341330087,109.62706381420332,6613.45255897702,Big Mac
124,McDonald's,72946-94692,Fred Meyer-Soldotna #17,Licensed,43843 Sterling Hwy,Soldotna,AK,US,996697640,907-260-2200,GMT-09:00 America/Anchorage,-151.05,60.49,24.7735526596881,4.75205081971406,13.328098749929643,10.617236854152042,2.7108618957776,77.92443617053743,14614.673299356058,Quarter Pounder with Cheese
125,McDonald's,74695-94706,Safeway-Soldotna #548,Licensed,44282 Sterling Hwy S,Soldotna,AK,US,996698033,907-714-5400,GMT-09:00 America/Anchorage,-151.07,60.48,36.639606921597945,5.227352715153421,23.6738466713965,15.702688680684833,7.971157990711668,111.82744834742272,9896.267586291086,Quarter Pounder with Bacon & Cheese
126,McDonald's,17912-136436,Parks Hwy & Palmer Wasilla Hwy,Company Owned,"1771 East Parks Hwy, Unit #4",Wasilla,AK,US,996548104,907-376-6055,GMT-09:00 America/Anchorage,-149.41,61.58,18.388164922025208,4.746511359812659,7.210313333556349,7.880642109439375,-0.6703287758830255,59.68047120578631,20980.34607989746,Quarter Pounder with Bacon Habanero Ranch
127,McDonald's,4146-104969,Safeway - Wasilla #1811,Licensed,595 E Parks Hwy,Wasilla,AK,US,996548102,907-352-1100,GMT-09:00 America/Anchorage,-149.44,61.58,39.335612048707546,6.7152169395630565,22.98871029972052,16.85811944944609,6.130590850274428,119.5303201391644,12588.732566301462,Quarter Pounder Deluxe
128,McDonald's,76916-131305,Target Wasilla T-2339,Licensed,1801 E Parks Hwy,Wasilla,AK,US,996547350,907-631-7200,GMT-09:00 America/Anchorage,-149.41,61.58,40.710318308053836,11.895347028800781,12.912142112369962,17.447279274880216,-4.535137162510254,123.45805230872524,24250.70955534532,Double Quarter Pounder with Cheese
129,McDonald's,72773-82040,Fred Meyer - Wasilla #653,Licensed,1501 East Parks Highway,Wasilla,AK,US,996548283,907-352-5000,GMT-09:00 America/Anchorage,-149.41,61.58,43.05597094637898,2.8715587666759026,35.01630282183683,18.452558977019564,16.563743844817267,130.15991698965422,2602.5879696035645,Hamburger
130,McDonald's,70086-134936,Universiy of Central Oklahoma,Licensed,100 N University Dr,Edmond,OK,US,730345207,405-974-3008,GMT-06:00 America/Chicago,-97.47,35.65,31.773125400555436,1.6313216808870032,26.913292686581812,13.617053743095186,13.296238943486626,97.9232154301584,1128.9101840266121,Cheeseburger
131,McDonald's,72664-64982,Super Target Edmond ST-1398,Licensed,1200 E 2nd St,Edmond,OK,US,730345317,405-844-5072,GMT-06:00 America/Chicago,-97.46,35.65,15.377056184575945,1.8913821342663553,10.600933241806924,6.590166936246833,4.010766305560091,51.0773033845027,8008.026367992188,Double Cheeseburger
132,McDonald's,10612-101375,Cleveland & Owen K. Garriott,Company Owned,2326 W Owen K. Garriott,Enid,OK,US,737035535,580-234-3726,GMT-06:00 America/Chicago,-97.91,36.39,36.72505874813074,3.8934704224431282,26.690421468830625,15.739310892056029,10.951110576774598,112.07159642323069,6377.605517746513,Bacon Clubhouse Burger
133,McDonald's,27316-246764,Fort Sill BX,Licensed,1718 Macomb Rd,Fort Sill,OK,US,73503,5802501759,GMT-06:00 America/Chicago,-98.4,34.67,49.415723136082036,5.617424735967137,35.080759791511056,21.178167058320874,13.902592733190186,148.33063753166294,7112.979522080141,McDouble
134,McDonald's,22602-222605,Hwy 75 & 121st,Company Owned,12111 South Vancouver Ave,Glenpool,OK,US,74033,9188910629,GMT-06:00 America/Chicago,-96.01,35.99,29.000213629566336,5.613254338617513,15.491045539425153,12.428662984099855,3.0623825553252977,90.00061037018952,14781.670583208715,Bacon McDouble
135,McDonald's,17056-178330,Target Lawton T-2739,Licensed,2030 NW 82nd St,Lawton,OK,US,73505,580-354-7274,GMT-06:00 America/Chicago,-98.49,34.63,46.21875667592394,4.679213613052043,34.0757364601725,19.808038575395976,14.267697884776522,139.196447645497,5919.095431379132,Daily Double
136,McDonald's,10168-99962,Cache & NW 40th,Company Owned,3908 Cache Road,Lawton,OK,US,735053734,580-351-9719,GMT-06:00 America/Chicago,-98.44,34.62,47.327494125186924,9.155249313697006,25.292845870046023,20.28321176793725,5.009634102108773,142.3642689291055,14770.683919797357,Jalapeño Double
137,McDonald's,10754-101629,29th & Air Depot,Company Owned,7203 SE 29th Street,Midwest City,OK,US,731106092,(405) 736-6500,GMT-06:00 America/Chicago,-97.4,35.44,36.16107669301431,2.6934026238889954,28.789147852737948,15.49760429700613,13.291543555731819,110.46021912289804,3350.4135258034,McRib
138,McDonald's,76482-98011,Target Midwest City T-2061,Licensed,7305 SE 29th St,Midwest City,OK,US,731106122,405-455-4000,GMT-06:00 America/Chicago,-97.4,35.44,44.35163426618244,12.118769025456238,15.916277039531414,19.00784325693533,-3.0915662174039187,133.8618121890927,22431.31809442427,Premium Crispy Chicken Classic Sandwich
139,McDonald's,10753-102015,19th & Telephone,Company Owned,620 SW 19th Street,Moore,OK,US,731605439,(405)793-7460,GMT-06:00 America/Chicago,-97.5,35.32,49.68062379833369,4.065784502017628,38.748672941961566,21.291695913571576,17.456977028389986,149.08749656666768,4056.4897610400703,Premium Grilled Chicken Classic Sandwich
140,McDonald's,458-1344,Timberhill,Company Owned,2305 NW Kings Blvd,Corvallis,OR,US,973303924,(541) 758-4069,GMT-08:00 America/Los_Angeles,-123.28,44.59,29.562059389019442,8.12453662278836,10.505596443324272,12.669454023865475,-2.163857580541203,91.60588396862697,22583.666493728444,Premium Crispy Chicken Club Sandwich
141,McDonald's,3415-86784,9th & Garfield - Corvallis,Company Owned,"1705 NW 9th Street, Suite B",Corvallis,OR,US,973302100,541/738-1172,GMT-08:00 America/Los_Angeles,-123.26,44.58,38.106173894467,8.17153970417987,18.604539589492603,16.331217383343,2.273322206149606,116.01763969847713,16786.370433668017,Premium Grilled Chicken Club Sandwich
142,McDonald's,79547-104100,Safeway - Cottage Grove #1458,Licensed,1500 E Main Street,Cottage Grove,OR,US,974242208,541-642-3413,GMT-08:00 America/Los_Angeles,-123.05,43.8,28.026062807092504,2.529034205485747,21.34114504274016,12.011169774468215,9.329975268271944,87.21732230597857,4862.910855433821,Premium Crispy Chicken Ranch BLT Sandwich
143,McDonald's,10170-96331,"244 Ellendale Ave- Dallas, OR",Company Owned,"244 E Ellendale Ave, 1",Dallas,OR,US,973381523,503-623-5231,GMT-08:00 America/Los_Angeles,-123.31,44.93,28.751335184789575,7.267988661431639,11.611706722248384,12.322000793481246,-0.7102940712328628,89.28952909939878,20467.635120700706,Premium Grilled Chicken Ranch BLT Sandwich
144,McDonald's,74778-98723,Safeway - Dallas -#4404,Licensed,138 W Ellendale Ave,Dallas,OR,US,973381408,503-831-6000,GMT-08:00 America/Los_Angeles,-123.31,44.93,46.19312112796411,6.864190377030856,29.244177453377663,19.797051911984617,9.447125541393046,139.1232032227546,10465.376750999481,Bacon Clubhouse Crispy Chicken Sandwich
145,McDonald's,79622-104108,Safeway - Boring #521,Licensed,20151 SE 212th,Damascus,OR,US,970899220,503-658-7000,GMT-08:00 America/Los_Angeles,-122.46,45.42,19.283272804956205,3.3928897020189295,11.04758454831631,8.26425977355266,2.7833247747636514,62.237922299874874,13091.18930631428,Bacon Clubhouse Grilled Chicken Sandwich
146,McDonald's,70366-136369,Safeway-Eugene #4513,Licensed,350 E 40th Ave,Eugene,OR,US,974053404,541-342-4067,GMT-08:00 America/Los_Angeles,-123.09,44.01,33.45545823541978,7.666616338725908,15.250683960805997,14.338053529465622,0.9126304313403759,102.72988067262796,18199.255348368784,Southern Style Crispy Chicken Sandwich
147,McDonald's,422-157,Eugene,Company Owned,205 E. 18th Street,Eugene,OR,US,974014108,541-465-9813,GMT-08:00 America/Los_Angeles,-123.09,44.04,35.22751548814357,5.789205199631638,21.082163429428217,15.097506637775812,5.984656791652403,107.79290139469589,11976.409192175053,Bacon Cheddar McChicken
148,McDonald's,17920-172645,W. 11th & Acorn Park - Eugene,Company Owned,3110 W. 11th Avenue,Eugene,OR,US,97402,5413431041,GMT-08:00 America/Los_Angeles,-123.14,44.05,43.73638111514634,9.430277602973126,21.240315143999606,18.744163335062716,2.49615180893689,132.10394604327524,16899.166844691306,Bacon Buffalo Ranch McChicken
149,McDonald's,756-2040,One Oliver Plaza,Company Owned,210 Sixth Avenue,Pittsburgh,PA,US,152222601,412-642-9066,GMT-05:00 America/New_York,-80.0,40.44,41.82973723563341,5.40995977489636,28.254636241436078,17.92703024384289,10.32760599759319,126.65639210180974,8615.95507675405,Buffalo Ranch McChicken
150,McDonald's,7887-72865,Sixth Street,Company Owned,"202 Sixth Street, Lafayette Plaza",Pittsburgh,PA,US,152223102,412-281-2380,GMT-05:00 America/New_York,-80.0,40.44,19.53856013672292,2.000306828048058,14.356342709548278,8.37366863002411,5.982674079524168,62.96731467635121,6028.229621265297,Premium McWrap Chicken & Bacon (Crispy Chicken)
151,McDonald's,10052-99312,"Robinson, Lafayette Plaza",Company Owned,227 Summit Park Drive,Pittsburgh,PA,US,152751203,412-809-3045,GMT-05:00 America/New_York,-80.18,40.45,24.400769066438794,4.0269050814439655,14.56554712460452,10.457472457045197,4.108074667559322,76.85934018982513,12043.061616870633,Premium McWrap Chicken & Bacon (Grilled Chicken)
152,McDonald's,17198-172190,Cumberland Valley Travel Plaza,Licensed,Pennsylvania Turnpike MP 219.12,Plainfield,PA,US,17081,717-218-5949,GMT-05:00 America/New_York,-77.28,40.21,21.43559068575091,6.0784000493094625,7.2056869498400555,9.186681722464673,-1.9809947726246175,68.38740195928831,23422.31513412885,Premium McWrap Chicken & Ranch (Crispy Chicken)
153,McDonald's,24889-237527,Target Plymouth Meeting T-1269,Licensed,2250 Chemical Rd,Plymouth Meeting,PA,US,19462,610-276-0042,GMT-05:00 America/New_York,-75.29,40.1,46.177098910489214,5.9095046148960835,31.329104801298268,19.790185247352518,11.53891955394575,139.0774254585406,8485.580004272591,Premium McWrap Chicken & Ranch (Grilled Chicken)
154,McDonald's,24455-93327,Giant-Plymouth Meeting #11,Licensed,2450 Chemical Rd,Plymouth Meeting,PA,US,19462,610-941-0830,GMT-05:00 America/New_York,-75.29,40.1,34.808801538132876,9.092440969421464,13.413079343880344,14.918057802056946,-1.5049784581766017,106.5965758232368,21276.253547776727,Premium McWrap Southwest Chicken (Crispy Chicken)
155,McDonald's,764-603,Plymouth Meeting,Company Owned,"413 West Germantown Pike, Philadelphia Premium Outlets",Plymouth Meeting,PA,US,194621301,610-941-4263,GMT-05:00 America/New_York,-75.29,40.11,21.703695791497545,4.073773168469402,11.873246989204956,9.301583910641805,2.571663078563152,69.15341654713583,14219.153416547137,Premium McWrap Southwest Chicken (Grilled Chicken)
156,McDonald's,14221-107001,Philadelphia Premium Outlets,Company Owned,"18 Lightcap Road, 1039, Trainers Corner Shopping Center",Pottstown,PA,US,194647806,610-970-6430,GMT-05:00 America/New_York,-75.57,40.24,41.09164708395642,3.203611000112158,32.40003700035141,17.610705893124177,14.789331107227236,124.54756309701834,3684.408093508713,Premium McWrap Chicken Sweet Chili (Crispy Chicken)
157,McDonald's,7940-95325,Quakertown,Company Owned,262 North Westend Boulevard,Quakertown,PA,US,189512324,215-804-1171,GMT-05:00 America/New_York,-75.36,40.45,19.859004486220893,1.548107794713533,15.658807158402283,8.511001922666097,7.147805235736186,63.882869960631126,3683.675649281289,Premium McWrap Chicken Sweet Chili (Grilled Chicken)
158,McDonald's,76745-106439,Target Richlandtown (Quakertown) T-,Licensed,610 N West End Blvd,Quakertown,PA,US,189514100,215-529-2720,GMT-05:00 America/New_York,-75.37,40.46,23.81008331553087,3.5809952570350556,14.979490417432514,10.2043214209418,4.775168996490713,75.17166661580248,10638.23358867153,Chicken McNuggets (4 piece)
159,McDonald's,10211-99817,Keith & 1st,Company Owned,653 West Inman St,Cleveland,TN,US,373111786,423-472-1351,GMT-05:00 America/New_York,-84.88,35.16,20.542619098483232,1.7731777925106065,15.819923191020568,8.80397961363567,7.015943577384896,65.83605456709495,4486.434522537919,Chicken McNuggets (6 piece)
160,McDonald's,76881-121299,Target Cleveland T-2367,Licensed,4570 Frontage Rd NW,Cleveland,TN,US,373122905,423-790-3000,GMT-05:00 America/New_York,-84.84,35.26,44.01516769920957,3.62698307152427,34.27519823388779,18.863643299661245,15.411554934226546,132.90047914059878,4110.6906338694425,Chicken McNuggets (10 piece)
161,McDonald's,17746-178124,Paul Huff & I-75,Company Owned,615 Paul Huff Parkway NW,Cleveland,TN,US,37312,423.339.8145,GMT-05:00 America/New_York,-84.86,35.21,41.81478316599017,11.163667855293394,15.5821225577051,17.920621356852934,-2.338498799147833,126.61366618854335,21829.98138370922,Chicken McNuggets (20 piece)
162,McDonald's,10084-99523,Houston Levee & Winchester,Company Owned,3603 S Houston Levee Rd,Collierville,TN,US,380179014,901-850-1604,GMT-06:00 America/Chicago,-89.73,35.05,23.60606707968383,1.5750946000447628,19.196616276398,10.11688589129307,9.07973038510493,74.58876308481094,2605.51774651326,Chicken McNuggets (40 piece)
163,McDonald's,8362-16534,Collierville,Company Owned,897 Poplar,Collierville,TN,US,380175145,901-861-2762,GMT-06:00 America/Chicago,-89.69,35.05,15.645161290322582,1.8184808279770068,11.018697017160262,6.705069124423963,4.3136278927363,51.84331797235023,7358.348338267159,Filet-O-Fish
164,McDonald's,76241-91588,Target Collierville T-1907,Licensed,325 New Byhalia Rd,Collierville,TN,US,380173705,901-860-0000,GMT-06:00 America/Chicago,-89.69,35.05,25.812860499893183,5.652131783735423,12.345656155679524,11.062654499954222,1.2830016557253021,80.89388714255196,17220.709860530413,Premium Bacon Ranch Salad (without Chicken)
165,McDonald's,25983-237524,Kroger Columbia #507,Licensed,1202 S James Campbell Blvd,Columbia,TN,US,38401,,GMT-06:00 America/Chicago,-87.06,35.6,28.37855159154027,6.794197834800094,12.29617429131845,12.162236396374398,0.13393789494405128,88.22443311868648,19183.66039002655,Premium Bacon Ranch Salad with Crispy Chicken
166,McDonald's,10616-101627,Jefferson & Interstate,Company Owned,1105 Interstate Drive,Cookeville,TN,US,385014133,931-525-6503,GMT-06:00 America/Chicago,-85.51,36.14,33.23007904293954,2.3260142610823737,26.783644506840737,14.241462446974088,12.542182059866649,102.0859401226844,2919.7363200781274,Premium Bacon Ranch Salad with Grilled Chicken
167,McDonald's,70334-135770,Tennessee Tech University,Licensed,1000 North Dixie,Cookeville,TN,US,38505,931-372-3276,GMT-06:00 America/Chicago,-85.5,36.17,48.27814569536424,6.9526452777053,31.051200256598012,20.690633869441815,10.360566387156195,145.08041627246925,10025.177770317698,Premium Southwest Salad (without Chicken)
168,McDonald's,10791-102282,Houston Levee & Macon,Company Owned,1181 North Houston Levee,Cordova,TN,US,380186616,901-624-9022,GMT-06:00 America/Chicago,-89.73,35.16,45.08331553086947,5.6305644798960435,30.892741053863393,19.3214209418012,11.571320112062189,135.9523300881985,8189.672536393322,Premium Southwest Salad with Crispy Chicken
169,McDonald's,6386-13970,William Cannon & Westgate,Company Owned,6816  Westgate Blvd.,Austin,TX,US,787492226,512-444-7494,GMT-06:00 America/Chicago,-97.82,30.21,44.05682546464431,10.912491261134669,18.28707167156227,18.881496627704706,-0.5944249561424367,133.01950132755516,19978.362376781515,Premium Southwest Salad with Grilled Chicken
170,McDonald's,76383-96938,Target Austin T-1061,Licensed,5300 S Mo Pac Expy,Austin,TX,US,787491112,512-892-5535,GMT-06:00 America/Chicago,-97.83,30.23,30.76265755180517,8.779097477116773,10.218136800076062,13.183996093630785,-2.965859293554723,95.03616443372906,23596.636860255745,Chipotle BBQ Snack Wrap (Crispy Chicken)
171,McDonald's,79603-102559,Randalls - Austin #2483,Licensed,715 Exposition,Austin,TX,US,787033615,5124775713,GMT-06:00 America/Chicago,-97.78,30.28,36.89275795770134,10.029455060686356,13.352246505883302,15.811181981872,-2.458935475988697,112.55073702200384,22298.01324503311,Chipotle BBQ Snack Wrap (Grilled Chicken)
172,McDonald's,6341-13118,Northland & Balcones,Company Owned,"3317 Northland Dr, Ste A",Austin,TX,US,787314974,512-458-5574,GMT-06:00 America/Chicago,-97.76,30.34,35.85985900448622,6.6556388598798595,19.783059152571077,15.368511001922665,4.414548150648414,109.59959715567493,14017.731254005555,Honey Mustard Snack Wrap (Crispy Chicken)
173,McDonald's,76104-78194,Super Target Balcones Hts ST-1523,Licensed,4522 Fredricksburg Rd,Balcones Heights,TX,US,782016521,210-280-0000,GMT-06:00 America/Chicago,-98.55,29.49,46.06707968382824,8.503015370212763,25.51776268200704,19.743034150212104,5.774728531794932,138.7630848109378,13919.583727530748,Honey Mustard Snack Wrap (Grilled Chicken)
174,McDonald's,29132-252020,407 & McMakin,Company Owned,"3012 FM 407, 200",Bartonville,TX,US,76226,2144708156,GMT-06:00 America/Chicago,-97.13,33.08,44.07925656910916,11.581583530480666,16.83660253928733,18.89110995818964,-2.0545074189023116,133.08359019745475,21423.47483748894,Ranch Snack Wrap (Crispy Chicken)
175,McDonald's,25202-201748,Kroger Southwest Store #572,Licensed,3400 FM 407 E,Bartonville,TX,US,76226,940-294-8251,GMT-06:00 America/Chicago,-97.13,33.08,41.785943174535355,12.14460163979648,13.396381840001684,17.908261360515155,-4.511879520513471,126.53126621295816,24101.290932950833,Ranch Snack Wrap (Grilled Chicken)
176,McDonald's,11698-103876,71 & Hasler,Company Owned,501 B Hwy 71 West,Bastrop,TX,US,786023737,512-321-8051,GMT-06:00 America/Chicago,-97.33,30.11,33.01858577227088,2.6999221103223974,25.758013698670776,14.150822473830377,11.607191224840397,101.48167363505966,4049.897762993255,Small French Fries
177,McDonald's,29831-247784,Kroger Baytown #150,Licensed,6231 Garth Rd,Baytown,TX,US,77251,346-216-4154,GMT-06:00 America/Chicago,-94.98,29.79,35.00961333048494,7.8050699282975415,16.438074955010954,15.00411999877926,1.433954956231693,107.17032380138554,17602.31330301828,Medium French Fries
178,McDonald's,76418-96282,Target Baytown T-887,Licensed,4510 Garth Rd,Baytown,TX,US,775212124,281-427-0265,GMT-06:00 America/Chicago,-94.98,29.77,18.208716086306346,3.8888642855183697,8.924866014713677,7.8037354655598605,1.121130549153816,59.16776024658956,16702.87179174169,Large French Fries
179,McDonald's,24500-237076,American Fork - 500 E and State,Company Owned,496 E State Street,American Fork,UT,US,84003,8013807114,GMT-07:00 America/Denver,-111.79,40.37,19.859004486220893,4.977387623021262,8.114391536125279,8.511001922666097,-0.39661038654081804,63.882869960631126,20261.085848567156,Kids French Fries
180,McDonald's,22873-222264,Smith's - Bountiful #444,Licensed,555 S 200 W,Bountiful,UT,US,84010,801-397-7800,GMT-07:00 America/Denver,-111.89,40.88,37.35099337748344,8.722888093880593,16.6665998358468,16.007568590350044,0.6590312454967536,113.85998107852413,18619.678334910124,Side Salad
181,McDonald's,20321-204364,Bountiful 500S,Company Owned,422 West 500 South,Bountiful,UT,US,84010,8012983155,GMT-07:00 America/Denver,-111.89,40.88,26.50395214697714,7.014726688492606,10.011395346414325,11.358836634418774,-1.3474412880044486,82.86843470564898,21608.050782799768,Apple Slices
182,McDonald's,47968-250765,Smiths Brigham City #178,Licensed,156 S. Main,Brigham City,UT,US,84302,4357342500,GMT-07:00 America/Denver,-112.02,41.51,44.817346720786155,3.16068500838431,36.07114583350922,19.20743430890835,16.86371152460087,135.19241920224616,2970.2749717703787,Fruit 'n Yogurt Parfait
183,McDonald's,10334-99941,Providence Crossing- Cedar City,Company Owned,1233 S Sage Dr,Cedar City,UT,US,847201998,435-586-2531,GMT-07:00 America/Denver,-113.08,37.66,33.08908352916043,2.115946262179215,27.11043841119975,14.181035798211614,12.929402612988135,101.68309579760124,2338.908047730949,Baked Apple Pie
184,McDonald's,10703-101354,Centerville Starbucks,Company Owned,"356 N. Marketplace Drive, #A100",Centerville,UT,US,840141736,801-298-0256,GMT-07:00 America/Denver,-111.89,40.92,24.54496902371288,3.6651158692487433,15.49991535041713,10.519272438734092,4.980642911683038,77.2713400677511,10534.958952604755,Chocolate Chip Cookie
185,McDonald's,24530-235844,Clearfield - Falcon Hill,Company Owned,"306 East 650 North, 106, Clinton Pines",Clearfield,UT,US,84015,3852450630,GMT-07:00 America/Denver,-112.02,41.12,46.12796411023286,8.07996041160596,26.506932640290433,19.769127475814084,6.737805164476346,138.93704031495102,13015.747550889613,Oatmeal Raisin Cookie
186,McDonald's,10760-101874,"1800 North & 2000 West-Clinton, UT",Company Owned,1819 West 1800 North,Clinton,UT,US,840158580,801-773-3260,GMT-07:00 America/Denver,-112.06,41.14,31.72933133945738,6.032562481921402,17.188520625652004,13.59828485976745,3.590235765884554,97.79808954130681,14452.070680867944,Kids Ice Cream Cone
187,McDonald's,6924-87506,12300 South & 1300 East-Draper,Company Owned,1283 E. Draper Pkwy.,Draper,UT,US,840209098,801-501-9177,GMT-07:00 America/Denver,-111.86,40.53,36.78914761803034,6.539850047391705,20.929911609047377,15.766777550584427,5.163134058462948,112.25470748008667,13265.511032441176,Hot Fudge Sundae
188,McDonald's,22132-206304,Ridley's Family Markets - Eagle Mou,Licensed,"4045 E Pony Express Prkwy, Station Park",Eagle Mountain,UT,US,84005,801-789-4991,GMT-07:00 America/Denver,-111.97,40.36,24.77568895535142,1.5465241067179794,20.38230836235781,10.618152409436323,9.764155952921488,77.93053987243263,2192.419202246162,Hot Caramel Sundae
189,McDonald's,75786-96371,MIA - Main E Food Ct,Licensed,4200 NW 21st Street,Miami,FL,US,331281984,,GMT-05:00 America/New_York,-80.26,25.77,17.524033326212347,2.718345676813209,10.842711504174792,7.510299996948149,3.332411507226642,57.21152378917814,11091.616565446942,Strawberry Sundae
190,McDonald's,29828-247324,The Bond At Brickell,Licensed,1080 Brickell  Ave.,Miami,FL,US,33130,,GMT-05:00 America/New_York,-80.19,25.76,43.015381328775895,6.184240520421886,27.68943693069671,18.435163426618242,9.254273504078471,130.04394665364543,10001.739555040132,Coca-Cola Classic (Small)
191,McDonald's,8499-61300,47 W. Flagler St,Company Owned,"47 West Flagler Street, The Falls",Miami,FL,US,331301702,305-372-2550,GMT-05:00 America/New_York,-80.19,25.77,36.256141850032044,8.42847139260053,16.263259112309598,15.538346507156593,0.7249126051530056,110.7318338572344,18517.136143070773,Coca-Cola Classic (Medium)
192,McDonald's,28579-249825,Teavana - The Falls,Company Owned,"8888 SW 136th ST., #370A",MIAMI,FL,US,33176,786-242-2652,GMT-05:00 America/New_York,-80.34,25.65,42.13202307199316,4.7547197337800196,29.98635873479739,18.056581316568494,11.929777418228895,127.52006591998047,7033.875545518357,Coca-Cola Classic (Large)
193,McDonald's,13736-107277,2645 SW 22nd St,Company Owned,2645 SW 22nd St.,Miami,FL,US,33145,305-856-4304,GMT-05:00 America/New_York,-80.24,25.75,25.996581926938692,5.8750355182706295,12.031640509665758,11.141392254402295,0.8902482552634626,81.41880550553911,17895.290993987852,Coca-Cola Classic (Child)
194,McDonald's,21216-183784,827 Arthur Godfrey Road,Company Owned,"827 West 41st Street, Unit #2",Miami Beach,FL,US,33140,7865660341,GMT-05:00 America/New_York,-80.13,25.81,37.56996368297373,6.293401750581083,22.2216812843764,16.10141300698874,6.120268277387658,114.48561052278207,12281.105990783411,Diet Coke (Small)
195,McDonald's,8543-54279,10th St. & West Ave.,Company Owned,959 West Avenue,Miami Beach,FL,US,331395201,305-532-3367,GMT-05:00 America/New_York,-80.14,25.78,17.901089510788292,4.361693578622001,7.589320057388357,7.671895504623553,-0.0825754472351959,58.288827173680836,19590.899380474257,Diet Coke (Medium)
196,McDonald's,75553-64359,Marriott South Beach-Miami,Licensed,161 Ocean Dr,Miami Beach,FL,US,331397212,305-536-7700,GMT-05:00 America/New_York,-80.13,25.77,20.590685750907927,4.2730056002475445,10.366446000327013,8.824579607531968,1.541866392795045,65.97338785973693,16122.043519394512,Diet Coke (Large)
197,McDonald's,8557-72544,416 Lincoln Rd.,Company Owned,416 Lincoln Rd.,Miami Beach,FL,US,331393003,305-673-9684,GMT-05:00 America/New_York,-80.13,25.79,22.448194830164496,4.059542322630168,12.619273927171546,9.620654927213355,2.998618999958191,71.28055665761283,13560.68605609302,Diet Coke (Child)
198,McDonald's,8242-629,16th & Alton,Company Owned,"1570 Alton Road, Suite A",Miami Beach,FL,US,331393344,305-538-0958,GMT-05:00 America/New_York,-80.14,25.79,26.66417432172613,5.75370680743421,12.939452372501824,11.427503280739769,1.5119490917620546,83.32621234778894,16915.280617694632,Dr Pepper (Small)
199,McDonald's,25599-241155,Delaware House Travel Plaza Cafe,Licensed,"530 JFK Memorial Highway, 302",Newark,DE,US,19702,302-731-8599,GMT-05:00 America/New_York,-75.69,39.66,23.467207861568042,5.2142507265520885,11.057167948690727,10.057374797814877,0.9997931508758515,74.19202246162297,17530.533768730733,Dr Pepper (Medium)
200,McDonald's,74731-97006,Safeway-Rehoboth Beach #2706,Licensed,"4396 SR-1, 301 Rehoboth Ave",Rehoboth Beach,DE,US,19971,302-226-3073,GMT-05:00 America/New_York,-75.13,38.72,45.773339030121775,3.0391697864904605,37.25623193863789,19.61714529862362,17.639086640014273,137.9238258003479,2574.022644734031,Dr Pepper (Large)
201,McDonald's,14253-117484,301 Rehoboth Ave.,Company Owned,301 Rehoboth Ave,Rehoboth Beach,DE,US,199713114,302 227-3682,GMT-05:00 America/New_York,-75.09,38.72,45.00854518265328,10.220361378400524,20.723408342866,19.289376506851404,1.434031836014595,135.73870052186652,17999.29807428205,Dr Pepper (Child)
202,McDonald's,73836-100578,Harris Teeter-Selbyville #327,Licensed,31221 Americana Parkway,Selbyville,DE,US,199753785,302-436-2827,GMT-05:00 America/New_York,-75.11,38.47,43.446913052766504,8.230874277973369,23.60111311911443,18.62010559404279,4.9810075250716395,131.27689443647571,14386.883144627216,Diet Dr Pepper (Small)
203,McDonald's,76335-95673,Target Brandywine T-1146,Licensed,1050 Brandywine Pkwy,Wilmington,DE,US,198031492,302-478-2500,GMT-05:00 America/New_York,-75.54,39.83,18.39457380901517,4.990118291137936,6.680530616151104,7.883388775292214,-1.2028581591411094,59.69878231147191,22243.07992797632,Diet Dr Pepper (Medium)
204,McDonald's,20585-202066,Cobbs Ford Road,Company Owned,2588 Cobbs Ford Road,Prattville,AL,US,36066,334-285-9413,GMT-06:00 America/Chicago,-86.39,32.46,44.17859431745353,3.86729548052821,33.90340048759333,18.93368327890866,14.969717208684672,133.36741233558152,4603.625598925749,Diet Dr Pepper (Large)
205,McDonald's,76796-108570,Target Prattville T-2274,Licensed,2754 Legends Pkwy,Prattville,AL,US,36066,334-290-6000,GMT-06:00 America/Chicago,-86.43,32.47,23.186284981841485,4.002317773546362,13.453734480765833,9.936979277932064,3.516755202833768,73.38938566240425,12771.111178930021,Diet Dr Pepper (Child)
206,McDonald's,10249-96359,I-10 & Hwy 181,Company Owned,"30350 State Hwy 181, Suite A",Spanish Fort,AL,US,365275694,251-626-3180,GMT-06:00 America/Chicago,-87.85,30.67,34.85473189489426,9.880950042569118,11.722452525446432,14.937742240668966,-3.215289715222534,106.72780541398359,23414.99069185461,Sprite (Small)
207,McDonald's,3453-93234,US Hwy 11 & I-459,Company Owned,"1420 Gadsden Hwy, BAMA Dining Services/Starbucks Coffee",Trussville,AL,US,352353126,205-661-3201,GMT-06:00 America/Chicago,-86.65,33.6,27.973723563341167,2.0878486998049,22.26150748123674,11.988738670003356,10.272768811233384,87.06778160954619,3365.0624103518785,Sprite (Medium)
208,McDonald's,72121-3608,U of AL - Ferguson Cntr,Licensed,"1000 McCorvey Dr., UoA-Ferguson Center",Tuscaloosa,AL,US,35487,205-348-9143,GMT-06:00 America/Chicago,-87.55,33.21,44.138004699850455,12.74468553016541,14.33417634549253,18.91628772850734,-4.5821113830148095,133.25144199957273,23919.6447645497,Sprite (Large)
209,McDonald's,13482-94577,McFarland Blvd & 15th St,Company Owned,"1800 McFarland Blvd, Suite 600",Tuscaloosa,AL,US,354045875,205-343-2468,GMT-06:00 America/Chicago,-87.53,33.2,31.900234992522964,4.214828405556789,21.351603100597114,13.671529282509841,7.680073818087273,98.28638569292275,8884.02966399121,Sprite (Child)
210,McDonald's,72668-65003,Super Target Tuscaloosa ST-1787,Licensed,1901 13th Ave E,Tuscaloosa,AL,US,354044785,205-462-1064,GMT-06:00 America/Chicago,-87.51,33.2,48.90728476821192,13.431480438747029,17.401736412239988,20.96026490066225,-3.5585284884222634,146.8779564806055,22564.622943815422,1% Low Fat Milk Jug
211,McDonald's,48066-207044,Aramark @ U of Alabama Paul W Bryan,Licensed,838 Paul W Bryant Drive,Tuscaloosa,AL,US,35401,2053489842,GMT-06:00 America/Chicago,-87.55,33.21,17.337107455671866,1.1246606527230483,14.169369721454284,7.430188909573657,6.739180811880629,56.67744987334819,2427.533799249245,Fat Free Chocolate Milk Jug
212,McDonald's,9587-97243,Cahaba Heights & Dolly Ridge Rd,Company Owned,3130 Cahaba Heights Rd,Vestavia Hills,AL,US,352435243,205-298-7946,GMT-06:00 America/Chicago,-86.74,33.46,15.187994018372143,3.170372658057275,7.605654409911254,6.509140293588061,1.0965141163231926,50.53712576677755,16239.234595782344,Minute Maid 100% Apple Juice Box
213,McDonald's,8560-79440,Montgomery Hwy & Canyon Dr,Company Owned,"700 Montgomery Hwy, Suite 100",Vestavia Hills,AL,US,352161867,205-978-2892,GMT-06:00 America/Chicago,-86.79,33.45,25.22003845332194,2.64315115978127,18.39630436367027,10.808587908566546,7.587716455103725,79.20010986663411,6261.146885586108,Minute Maid Orange Juice (Small)
214,McDonald's,9392-95294,"6th & C Street, SW",Company Owned,"550 C Street, SW, Suite 100",Washington,DC,US,200242572,202-484-8059,GMT-05:00 America/New_York,-77.02,38.89,22.842341380046996,4.4372016699159875,12.166804051029947,9.789574877162998,2.377229173866948,72.40668965727714,14848.323007904295,Minute Maid Orange Juice (Medium)
215,McDonald's,49899-271484,Renaissance Hotel,Company Owned,999 9th Street NW,Washington,DC,US,20001,202 868-7726,GMT-05:00 America/New_York,-77.02,38.9,23.91476180303354,4.450289973759492,13.167533388641315,10.249183629871517,2.9183497587697973,75.47074800866726,14064.607684560686,Minute Maid Orange Juice (Large)
216,McDonald's,72453-5260,DCA - Wash Nat'l-Reagan-Level 1,Licensed,"1 Aviation Circle, Washington Square",Washington,DC,US,200016000,7034178452,GMT-05:00 America/New_York,-77.04,38.86,35.098269600512715,9.673098954875028,12.41352111576714,15.042115543076875,-2.628594427309735,107.42362743003632,22657.643360698265,Dasani Water Bottle
217,McDonald's,7281-766,1734 L Street,Company Owned,1734 'L' Street NW,Washington,DC,US,200365406,(202) 293-9180,GMT-05:00 America/New_York,-77.04,38.9,22.1736808374279,3.332345507119604,13.955573488267655,9.503006073183386,4.4525674150842685,70.49623096407971,10627.24692526017,Iced Tea (Small)
218,McDonald's,725-2024,DuPont South,Company Owned,"1301 Connecticut Avenue NW, The Portals",Washington,DC,US,200361815,202-785-4728,GMT-05:00 America/New_York,-77.04,38.91,35.08224738303781,7.255420319708672,17.717032784357222,15.035248878444778,2.6817839059124458,107.37784966582232,16053.926206244088,Iced Tea (Medium)
219,McDonald's,11869-105617,The Portals,Company Owned,1201 Maryland Avenue SW,Washington,DC,US,200246129,(202) 488-6366,GMT-05:00 America/New_York,-77.03,38.88,18.427686391796627,5.3400473641268995,5.942474735045583,7.897579882198554,-1.9551051471529706,59.7933896908475,24019.257179479355,Iced Tea (Large)
220,McDonald's,21772-214865,2001 L St,Company Owned,2001 L St NW,Washington,DC,US,20036,2023314260,GMT-05:00 America/New_York,-77.05,38.9,46.254005554368725,12.733508789444823,16.390125995415367,19.823145237586598,-3.4330192421712318,139.2971587267678,22628.345591601308,Iced Tea (Child)
221,McDonald's,728-239264,1401 New York Ave II,Company Owned,1401 New York Ave NW,Washington DC,DC,US,20005,2026379555,GMT-05:00 America/New_York,-77.03,38.9,19.457380901516768,5.1429016199499955,7.364702101566108,8.338877529221472,-0.9741754276553635,62.73537400433363,21574.358348338264,Sweet Tea (Small)
222,McDonald's,22797-220545,DCA B63,Licensed,1 Aviation Circle,Washington DC,DC,US,20001,7034171014,GMT-05:00 America/New_York,-77.05,38.85,46.47618030335398,6.467617137859696,30.388375387928495,19.918362987151706,10.470012400776788,139.93194372386853,9559.343241676077,Sweet Tea (Medium)
223,McDonald's,22473-220544,DCA B35,Licensed,1 Aviation Circle,Washington DC,DC,US,20001,7034171012,GMT-05:00 America/New_York,-77.05,38.85,38.02179021576586,2.9697887749479768,29.967383302249676,16.29505294961394,13.67233035263574,115.77654347361674,3698.3245338297675,Sweet Tea (Large)
224,McDonald's,74386-92938,Safeway-Colorado Springs #1286,Licensed,3275 W Colorado Ave,Colorado Springs,CO,US,809041905,,GMT-07:00 America/Denver,-104.88,38.86,20.63341166417432,3.6751552527299967,11.722733641601355,8.842890713217566,2.87984292838379,66.09546189764092,13299.203466902676,Sweet Tea (Child)
225,McDonald's,17364-173406,King Soopers-Commerce City #114,Licensed,15051 E 104th Ave,Commerce City,CO,US,80222,303-286-5464,GMT-07:00 America/Denver,-104.81,39.89,43.39030121768853,7.838446593002857,24.410106664374705,18.59584337900937,5.814263285365335,131.11514633625293,13542.374950407422,Coffee (Small)
226,McDonald's,13604-108690,"104th & Tower, Commerce City",Company Owned,"10339 Tower Road, Conifer Town Center",Commerce City,CO,US,800229720,303-853-4400,GMT-07:00 America/Denver,-104.77,39.88,28.80367442854091,6.656218242144677,13.007847318680984,12.3444318979461,0.6634154207348824,89.43906979583117,18384.56373790704,Coffee (Medium)
227,McDonald's,13938-104015,Conifer Town Center - Conifer,Company Owned,26724 Conifer Town Center Dr,Conifer,CO,US,804338558,303-838-4924,GMT-07:00 America/Denver,-105.31,39.53,32.632984405041654,4.3594468302074985,21.736882002383496,13.985564745017854,7.751317257365642,100.37995544297617,9024.658955656605,Coffee (Large)
228,McDonald's,79529-101065,Safeway - Conifer #2792,Licensed,Hwy 285 & Light Ln,Conifer,CO,US,80433,303-838-4375,GMT-07:00 America/Denver,-105.3,39.53,40.0822473830378,8.252169837663239,20.324183844857163,17.178106021301918,3.146077823555246,121.6635639515366,15964.568010498368,Latte (Small)
229,McDonald's,79264-93868,King Soopers-Aspen Park #87,Licensed,25637 Conifer Road,Conifer,CO,US,804339078,3038164960,GMT-07:00 America/Denver,-105.29,39.54,35.96453749198889,7.220841013189217,18.640105763293057,15.41337321085238,3.226732552440677,109.89867854853969,15474.562822351756,Latte (Medium)
230,McDonald's,27300-241524,Copper Mtn Village Mountain Plaza,Licensed,209 Ten Mile Cr Suite 4,Copper Mountain,CO,US,80443,,GMT-07:00 America/Denver,-106.15,39.5,31.007263405255287,1.6225181992446887,26.19743283070676,13.288827173680838,12.908605657025921,95.7350383007294,1223.3954893642995,Latte (Large)
231,McDonald's,20181-203487,City Market - Cortez #408,Licensed,508 East Main Street,Cortez,CO,US,81321,970-565-6504,GMT-07:00 America/Denver,-108.58,37.35,38.18628498184149,7.609812097191616,19.917246968746273,16.365550706503495,3.551696262242781,116.24652851954711,15331.003753776666,Caramel Latte (Small)
232,McDonald's,22471-220904,King Soopers - Craig #415,Licensed,505 W. Victory Way,Craig,CO,US,81625,,GMT-07:00 America/Denver,-107.55,40.51,26.10660115359966,3.853287163585671,16.585105347567193,11.188543351542709,5.3965619960244835,81.73314615314187,10369.426557206945,Caramel Latte (Medium)
233,McDonald's,27708-240564,Auraria Tivoli - Student Union,Licensed,900 Auraria Parkway,Denver,CO,US,80204,3035563700,GMT-07:00 America/Denver,-105.01,39.75,22.332834864345227,6.210827692032604,7.775700547299689,9.571214941862241,-1.7955143945625518,70.95095675527207,22897.885067293315,Caramel Latte (Large)
234,McDonald's,14637-113173,Hwy 381 & Hwy 92,Company Owned,8655 Hiram Acworth Hwy,Dallas,GA,US,301576599,678-574-0556,GMT-05:00 America/New_York,-84.75,34.01,31.10446485793634,4.865299507419782,19.156627347295366,13.330484939115575,5.826142408179791,96.01275673696097,11216.132084109013,Hazelnut Latte (Small)
235,McDonald's,47957-259865,Kroger Dallas #673,Licensed,455 Nathan Dean Blvd,Dallas,GA,US,30132,770-443-0811,GMT-05:00 America/New_York,-84.82,33.91,47.69920957060457,11.853982160539266,19.71248043459401,20.442518387401957,-0.730037952807948,143.42631305887022,20057.4663533433,Hazelnut Latte (Medium)
236,McDonald's,13407-106853,Cleveland Hwy & North By-Pass,Company Owned,1305 N Glenwood Ave,Dalton,GA,US,307212605,706-428-0380,GMT-05:00 America/New_York,-84.96,34.8,25.916470839564198,1.465280736026387,21.656194386723577,11.107058931241799,10.549135455481778,81.18991668446913,1627.7047029023101,Hazelnut Latte (Large)
237,McDonald's,79479-99189,Kroger - Dalton #458,Licensed,1365 W Walnut Ave,Dalton,GA,US,307203857,706-270-0843,GMT-05:00 America/New_York,-84.99,34.76,44.56953642384106,9.269530481826632,22.393787906868827,19.10122989593188,3.2925580109369457,134.484389782403,16165.990173039949,French Vanilla Latte (Small)
238,McDonald's,49732-251700,Kroger Dawsonville #670,Licensed,378 Marketplace Parkway,Dawsonville,GA,US,30534,4703751989,GMT-05:00 America/New_York,-84.05,34.35,34.27793206579791,5.711611297630139,20.34126992837969,14.69054231391339,5.650727614466298,105.07980590227973,12196.142460402234,French Vanilla Latte (Medium)
239,McDonald's,79316-100124,Kroger - Decatur #459,Licensed,2875 North Decatur Blvd,Decatur,GA,US,300335911,404-294-5311,GMT-05:00 America/New_York,-84.27,33.79,18.91476180303354,4.884605766869085,7.412038643800209,8.106326487014373,-0.6942878432141654,61.18503372295297,20991.332743308816,French Vanilla Latte (Large)
240,McDonald's,27607-218265,N Decatur & Church,Company Owned,2601 N Decatur Rd,Decatur,GA,US,30030,4048589955,GMT-05:00 America/New_York,-84.29,33.79,18.91369365520188,1.6354598809157457,14.559134170979164,8.105868709372235,6.453265461606928,61.18198187200537,4501.0834070863975,Latte with Sugar Free French Vanilla Syrup (Small)
241,McDonald's,8206-816,Decatur Square,Company Owned,133 East Court Square,Decatur,GA,US,300302561,4043711104,GMT-05:00 America/New_York,-84.3,33.78,29.05575731681265,4.369713849105966,18.28015655610702,12.452467421491138,5.8276891346158814,90.1593066194647,10637.501144444106,Latte with Sugar Free French Vanilla Syrup (Medium)
242,McDonald's,47267-251698,Kroger - Decatur #475,Licensed,"4919 Flat Shoals Parkway, ste 100",Decatur,GA,US,30034,7703228984,GMT-05:00 America/New_York,-84.23,33.68,20.084383678701133,2.2979938001592584,14.22542197120272,8.607593005157627,5.617828966045093,64.52681051057466,7184.026612140263,Latte with Sugar Free French Vanilla Syrup (Large)
243,McDonald's,9703-97484,Chapel Hill Rd @ I-20,Company Owned,"2736 Chapel Hill Rd, Bldg C",Douglasville,GA,US,301351704,678-838-7725,GMT-05:00 America/New_York,-84.74,33.73,19.5364238410596,4.396455547971965,9.082764681878897,8.372753074739828,0.7100116071390696,62.96121097445601,17803.73546555986,Nonfat Latte (Small)
244,McDonald's,21063-101700,Waimalu Shopping Center,Company Owned,"98-1277 Kaahumanu Street, Building E, Unit 7, Laulani Village",Aiea,HI,US,967015314,808-484-5802,GMT-10:00 Pacific/Honolulu,-157.95,21.39,45.37705618457594,4.527527043581755,33.60141444131305,19.44730979338969,14.154104647923354,136.7915890987884,5778.466139713736,Nonfat Latte (Medium)
245,McDonald's,18818-161204,Keaunui & Ft Weaver,Company Owned,"91-1105 Keaunui Drive, #500",Ewa Beach,HI,US,967066363,808-685-6922,GMT-10:00 Pacific/Honolulu,-158.02,21.33,17.341380046998506,1.5016194548280648,13.344162044496821,7.432020020142216,5.912142024354605,56.689657277138586,4512.802514725181,Nonfat Latte (Large)
246,McDonald's,18395-173858,Safeway-Ewa #2897,Licensed,91-1119 Keaunui St,Ewa Beach,HI,US,96706,808-683-3200,GMT-10:00 Pacific/Honolulu,-158.02,21.33,24.272591326639606,5.475240879609292,11.25615773843358,10.402539139988402,0.8536185984451771,76.49311807611316,17855.00656147954,Nonfat Caramel Latte (Small)
247,McDonald's,1563-152524,Safeway-Hilo #2893,Licensed,381 E  Makaala St,Hilo,HI,US,967205146,808-920-8870,GMT-10:00 Pacific/Honolulu,-155.07,19.7,38.65520187994018,3.3979464319249764,29.633511654507625,16.566515091402938,13.06699656310469,117.58629108554338,4638.7829218420975,Nonfat Caramel Latte (Medium)
248,McDonald's,21039-85523,Prince Kuhio Plaza Mall,Company Owned,111 East Puainako Street,Hilo,HI,US,967205288,808-959-2492,GMT-10:00 Pacific/Honolulu,-155.06,19.7,41.51783806878872,2.3045966909212434,34.787011826010435,17.793359172338025,16.993652653672413,125.76525162511064,1528.8247322000793,Nonfat Caramel Latte (Large)
249,McDonald's,21035-83560,Downtown Hilo on Kilauea Ave,Company Owned,438 Kilauea Ave,Hilo,HI,US,967203010,808-933-3094,GMT-10:00 Pacific/Honolulu,-155.08,19.72,17.799615466780605,3.3189788677544323,9.785877339049627,7.628406628620257,2.1574707104293687,57.998901333658864,14100.49745170446,Nonfat Hazelnut Latte (Small)
250,McDonald's,15774-152526,Target Hilo T-2682,Licensed,391 Makaala St,Hilo,HI,US,96720,,GMT-10:00 Pacific/Honolulu,-155.07,19.7,28.16171758171331,6.320078322973938,13.131076567902117,12.06930753501999,1.061769032882126,87.60490737632375,17744.407483138526,Nonfat Hazelnut Latte (Medium)
251,McDonald's,21274-210427,Waikiki Shopping Plaza,Company Owned,"2250 Kalakaua Avenue, 680 Ala Moana",Honolulu,HI,US,96815,8089220703,GMT-10:00 Pacific/Honolulu,-157.83,21.28,25.484939115573592,2.4667510879529164,19.038689157454233,10.922116763817252,8.11657239363698,79.95696890163885,5492.080446790979,Nonfat Hazelnut Latte (Large)
252,McDonald's,17849-167687,Ala Moana & Coral,Company Owned,"680 Ala Moana Blvd., A101",Honolulu,HI,US,968135406,808-521-2112,GMT-10:00 Pacific/Honolulu,-157.86,21.3,42.67677846613971,2.5561523916637414,35.3461720658339,18.290047914059873,17.05612415177402,129.07650990325632,1949.9801629688404,Nonfat French Vanilla Latte (Small)
253,McDonald's,21032-65366,Macy's Ala Moana Center - L2,Company Owned,"1450 Ala Moana Boulevard, 1000, Honolulu International Airport",Honolulu,HI,US,968144604,808-943-2437,GMT-10:00 Pacific/Honolulu,-157.84,21.29,47.95342875453962,9.019494514514697,26.1924036724257,20.551469466231264,5.640934206194438,144.15265358439893,14256.508072145756,Nonfat French Vanilla Latte (Medium)
254,McDonald's,3883-108573,Little Rock AFB - Troop Store,Licensed,787 6th St.,"Little Rock,",AR,US,720994947,5013495556,GMT-06:00 America/Chicago,-92.15,34.9,46.05960264900662,4.674346130829009,33.93365705522253,19.73982970671712,14.193827348505412,138.74172185430461,5942.533646656698,Nonfat French Vanilla Latte (Large)
255,McDonald's,11709-104595,Maumelle & Audubon,Company Owned,105 Commons Drive,Maumelle,AR,US,721137266,501-803-3576,GMT-06:00 America/Chicago,-92.4,34.85,33.984191412091434,9.890595531257002,10.865513586842374,14.564653462324898,-3.6991398754825258,104.2405468916898,24139.37803277688,Nonfat Latte with Sugar Free French Vanilla Syrup (Small)
256,McDonald's,28934-248986,Harp's Marketplace #91,Licensed,924 Highway 62 East,Mountain Home,AR,US,72653,870-425-0117,GMT-06:00 America/Chicago,-92.37,36.35,33.841059602649004,2.955915912007255,25.984402212127083,14.503311258278142,11.48109095384894,103.83159886471145,4585.31449324015,Nonfat Latte with Sugar Free French Vanilla Syrup (Medium)
257,McDonald's,25530-239094,JFK and North Hills,Company Owned,7129 JFK Blvd,North Little Rock,AR,US,72116,15016906059,GMT-06:00 America/Chicago,-92.23,34.82,44.784234138004706,11.913396261095976,16.78339299807337,19.19324320200202,-2.4098502039286496,135.09781182287057,21737.693411053802,Nonfat Latte with Sugar Free French Vanilla Syrup (Large)
258,McDonald's,9813-97844,JFK & McCain,Company Owned,4824 JFK,North LIttle Rock,AR,US,72116,501-812-0913,GMT-06:00 America/Chicago,-92.25,34.8,48.6893826105533,8.021184614704666,29.095201153780902,20.866878261665697,8.228322892115205,146.25537888729514,12015.228736228522,Mocha (Small)
259,McDonald's,10422-100877,Walnut & 46th,Company Owned,4520 W Walnut,Rogers,AR,US,72756,479-936-8250,GMT-06:00 America/Chicago,-94.18,36.33,19.447767571031832,2.4637479160164255,13.24961145295442,8.334757530442213,4.914853922512208,62.70790734580523,8361.796929837947,Mocha (Medium)
260,McDonald's,70343-138924,Target Rogers T-2498,Licensed,"2404 Promenade Blvd, Tuscany Square",Rogers,AR,US,727589080,(479) 986-1100,GMT-06:00 America/Chicago,-94.17,36.3,39.211706900235,9.984643015619396,15.677023989862926,16.805017242957852,-1.1279932530949264,119.17630542924283,20644.886623737297,Mocha (Large)
261,McDonald's,10485-100878,I-540 & Pleasant Grove,Company Owned,2605 W Pleasant Grove Road,Rogers,AR,US,727585802,479-986-8875,GMT-06:00 America/Chicago,-94.15,36.28,37.90002136295663,9.09400411887088,16.37721144692243,16.242866298409982,0.13434514851244725,115.42863246559037,19234.93148594623,Mocha with Nonfat Milk (Small)
262,McDonald's,18208-176368,Promenade & New Hope,Company Owned,"2003 Promenade Blvd, Suite 101",Rogers,AR,US,72758,4796360386,GMT-06:00 America/Chicago,-94.18,36.31,43.08908352916043,3.0131587128678783,34.73657101968469,18.466750083925902,16.269820935758784,130.2545243690298,2913.144322031312,Mocha with Nonfat Milk (Medium)
263,McDonald's,11743-104981,Weir & Parkway,Company Owned,2220 East Parkway,Russellville,AR,US,72802,(479) 967-2488,GMT-06:00 America/Chicago,-93.11,35.28,40.69536423841059,6.791792622888034,24.125605898520494,17.440870387890254,6.684735510630238,123.41532639545885,12221.778008362071,Mocha with Nonfat Milk (Large)
264,McDonald's,17694-116730,Harding University,Licensed,"211 Dr Jimmy Carr Drive, E Race and Rand",Searcy,AR,US,72149,501-279-5757,GMT-06:00 America/Chicago,-91.73,35.25,45.053407391582994,7.035134869221276,27.77397438363287,19.308603167821285,8.465371215811585,135.8668782616657,11190.496536149174,Caramel Mocha (Small)
265,McDonald's,25831-241311,E Race and Rand,Company Owned,3243 E Race Ave,Searcy,AR,US,72143,5013220591,GMT-06:00 America/Chicago,-91.69,35.25,17.873317667165136,1.7924591566536865,13.214974815840417,7.659993285927914,5.554981529912504,58.209479049043246,5827.53990295114,Caramel Mocha (Medium)
266,McDonald's,29087-251505,Sunset & Reiff,Company Owned,4224 W Sunset,Springdale,AR,US,72762,4796444768,GMT-06:00 America/Chicago,-94.18,36.18,16.9525742362743,2.5465335748883247,10.672097402069015,7.265388958403272,3.4067084436657438,55.578783532212285,10620.654927213354,Caramel Mocha (Large)
267,McDonald's,20391-179504,N. State Line Ave & Arkansas Blvd.,Company Owned,3912 N State Line Ave,Texarkana,AR,US,71854,8707799722,GMT-06:00 America/Chicago,-94.04,33.46,28.9051484725486,3.592170631887727,19.846167143493656,12.3879207739494,7.4582463695442565,89.72899563585315,8130.344553971984,Nonfat Caramel Mocha (Small)
268,McDonald's,26672-244125,Fayetteville and Rena Rd,Company Owned,2034 Fayetteville Rd,Van Buren,AR,US,72956,4797555650,GMT-06:00 America/Chicago,-94.36,35.47,32.52296517838069,4.6499592094466,20.99213631046294,13.938413647877436,7.053722662585504,100.06561479537339,9925.565355388042,Nonfat Caramel Mocha (Medium)
269,McDonald's,72898-74393,Hy Vee Foods-Ames #2,Licensed,640 Lincoln Way,Ames,IA,US,500106911,515-232-1961,GMT-06:00 America/Chicago,-93.62,42.02,34.61760307626575,6.996628868461489,17.84031544259985,14.836115604113894,3.0041998384859543,106.05029450361644,15602.740562150946,Nonfat Caramel Mocha (Large)
270,McDonald's,72997-74399,Hy-Vee - Ankeny #1,Licensed,410 N Ankeny,Ankeny,IA,US,500231753,515-964-0900,GMT-06:00 America/Chicago,-93.6,41.73,32.88720358897672,7.905243873044122,14.180178924720575,14.094515823847162,0.08566310087341443,101.1062959685049,19275.948362681967,Hot Chocolate (Small)
271,McDonald's,21477-212024,Hy-Vee @ Ankeny #2,Licensed,2510 SW State St,Ankeny,IA,US,50023,515-963-3130,GMT-06:00 America/Chicago,-93.62,41.71,16.73894466994232,2.835255495243595,9.83182479360872,7.1738334299752795,2.65799136363344,54.968413342692344,12460.554826502273,Hot Chocolate (Medium)
272,McDonald's,72188-20782,Super Target Ankeny ST-1767,Licensed,2135 SE Delaware Ave,Ankeny,IA,US,500214592,515-964-9000,GMT-06:00 America/Chicago,-93.58,41.71,29.716940824610127,1.5935434041237357,25.022467702553502,12.735831781975769,12.286635920577735,92.04840235602893,1347.911008026368,Hot Chocolate (Large)
273,McDonald's,9266-96097,Delaware & Shurfine - Ankeny,Company Owned,"1745 SE Delaware Ave., 100/200",Ankeny,IA,US,500213964,515-963-9253,GMT-06:00 America/Chicago,-93.58,41.71,28.127536851100192,2.9309138904249377,20.554424818121323,12.054658650471511,8.499766167649812,87.50724814600055,6203.283791619618,Hot Chocolate with Nonfat Milk (Small)
274,McDonald's,9353-214189,Kimberly & Middle Rd,Company Owned,931 Middle Road.,Bettendorf,IA,US,52722,5633591110,GMT-06:00 America/Chicago,-90.52,41.54,40.54582354197821,2.6766158300623513,33.03543577416191,17.376781517990665,15.658654256171245,122.98806726279489,2537.4004333628345,Hot Chocolate with Nonfat Milk (Medium)
275,McDonald's,73744-103865,Hy-Vee - Bettendorf #1,Licensed,2900 Devils Glen Rd,Bettendorf,IA,US,527223363,5633328496,GMT-06:00 America/Chicago,-90.48,41.55,23.79940183721427,7.007266736799474,7.431438942766855,10.1997436445204,-2.7683047017535456,75.14114810632648,24465.31571398053,Hot Chocolate with Nonfat Milk (Large)
276,McDonald's,26717-245064,Agency and Roosevelt - Burlington,Company Owned,3200 Agency St,Burlington,IA,US,52601,3198506376,GMT-06:00 America/Chicago,-91.14,40.82,39.63896603289895,11.070590893434547,13.698107426026986,16.988128299813837,-3.2900208737868497,120.39704580828273,23011.413922544023,Regular Iced Coffee (Small)
277,McDonald's,8951-95343,6421 University Ave - Cedar Falls,Company Owned,"6421 University Ave., Space C",Cedar Falls,IA,US,506135100,319-277-7140,GMT-06:00 America/Chicago,-92.44,42.51,31.451612903225808,4.864407985217228,19.491850819618872,13.47926267281106,6.012588146807812,97.00460829493088,11047.669911801508,Regular Iced Coffee (Medium)
278,McDonald's,3867-140227,Target Cedar Falls - T-2526,Licensed,214 Viking Plaza Drive,Cedar Falls,IA,US,506136936,(319) 553-1120,GMT-06:00 America/Chicago,-92.46,42.47,42.11172826319162,6.024122119036569,27.174190470783504,18.047883541367835,9.12630692941567,127.46208075197607,9932.889797662283,Regular Iced Coffee (Large)
279,McDonald's,3209-247424,210 W. Ironwood Drive,Company Owned,210 W. Ironwood Drive,Couer d'Alene,ID,US,83814,2087654684,GMT-08:00 America/Los_Angeles,-116.79,47.69,37.05298013245033,5.416370643861727,23.654845510656518,15.879848628192997,7.774996882463521,113.0085146641438,10233.191930906094,Caramel Iced Coffee (Small)
280,McDonald's,73690-128388,Albertsons -- Eagle #182,Licensed,250 South Eagle Rd,Eagle,ID,US,836165906,208-939-9850,GMT-07:00 America/Denver,-116.35,43.69,33.31766716513565,5.705905974421682,19.431967334802525,14.279000213629566,5.152967121172961,102.33619190038758,12640.736106448561,Caramel Iced Coffee (Medium)
281,McDonald's,3236-251306,Hwy 44 and Edgewood - Eagle,Company Owned,1598 E. Riverside Dr.,Eagle,ID,US,83616,2089380630,GMT-07:00 America/Denver,-116.33,43.69,38.209784234138006,11.448942002294697,11.49372045972415,16.375621814630573,-4.881901354906423,116.3136692403943,24964.842677083652,Caramel Iced Coffee (Large)
282,McDonald's,4130-104219,Albertsons - Emmett #126,Licensed,640 Highway 16,Emmett,ID,US,836179461,208-365-4420,GMT-07:00 America/Denver,-116.49,43.86,39.10702841273232,10.076441994520005,15.374574888279012,16.760155034028138,-1.3855801457491275,118.87722403637807,20935.6669820246,Hazelnut Iced Coffee (Small)
283,McDonald's,10732-98969,Glenwood & Chinden- Boise,Company Owned,4971 N. Glenwood St.,Garden City,ID,US,837141325,208-375-0447,GMT-07:00 America/Denver,-116.28,43.65,17.295449690237128,2.0266612332723315,12.144976989428514,7.412335581530198,4.732641407898317,56.558427686391795,7449.171422467727,Hazelnut Iced Coffee (Medium)
284,McDonald's,73573-77223,Albertsons-Hailey #130,Licensed,911 Main Street N,Hailey,ID,US,833338608,208-788-6709,GMT-07:00 America/Denver,-114.32,43.53,39.79064302499466,6.908868523033948,22.999506553320188,17.05313272499771,5.946373828322478,120.83040864284187,12868.526261177403,Hazelnut Iced Coffee (Large)
285,McDonald's,11122-102163,"Corner Stone Plaza- Hayden, ID",Company Owned,"540 W. Prairie Avenue, 100",Hayden,ID,US,838157766,208-762-7069,GMT-08:00 America/Los_Angeles,-116.79,47.74,34.52253791924803,7.483658531272643,16.677587633678296,14.795373393963443,1.8822142397148516,105.77867976928007,17010.498367259745,French Vanilla Iced Coffee (Small)
286,McDonald's,79335-100336,Fred Meyer - Idaho Falls #156,Licensed,1555 Northgate Mile,Idaho Falls,ID,US,834012014,208-535-2520,GMT-07:00 America/Denver,-112.02,43.51,45.97949156163212,10.217025544279297,21.662855701752395,19.70549638355662,1.9573593181957714,138.51283303323464,17531.99865718558,French Vanilla Iced Coffee (Medium)
287,McDonald's,11844-104431,I-15 & Broadway- Idaho Falls,Company Owned,157 Houston Circle,Idaho Falls,ID,US,834025089,208-522-1974,GMT-07:00 America/Denver,-112.05,43.5,20.255287331766716,2.2144696973465527,14.573242504333631,8.680837427900022,5.89240507643361,65.01510666219062,6695.4863124485,French Vanilla Iced Coffee (Large)
288,McDonald's,49105-103574,Albertsons - Idaho Falls #138,Licensed,590 East 17th St,Idaho Falls,ID,US,83404,2085230950,GMT-07:00 America/Denver,-112.02,43.48,32.16620380260628,6.071202857679946,17.522909363606146,13.78551591540269,3.7373934482034574,99.04629657887509,14319.498275704214,Iced Coffee with Sugar Free French Vanilla Syrup (Small)
289,McDonald's,10448-98526,Champaign - N Prospect Ave,Company Owned,2702 North Prospect,Champaign,IL,US,618221298,217-398-0821,GMT-06:00 America/Chicago,-88.26,40.15,47.688528092287974,11.920822178555161,19.555178175775104,20.437940610980558,-0.8827624352054558,143.39579454939422,20197.363200781274,Iced Coffee with Sugar Free French Vanilla Syrup (Medium)
290,McDonald's,21677-74483,Unv of Illinois Champaign-Bookstore,Licensed,809 S Wright St,Champaign,IL,US,618206219,2172441775,GMT-06:00 America/Chicago,-88.23,40.11,18.44904934842982,4.193700269001655,8.484946782688986,7.906735435041352,0.5782113476476353,59.8544267097995,18022.003845332194,Iced Coffee with Sugar Free French Vanilla Syrup (Large)
291,McDonald's,9706-96992,Champaign - 5th & Green,Company Owned,503 E. Green Street,Champaign,IL,US,618205719,217-344-8613,GMT-06:00 America/Chicago,-88.23,40.11,48.42448194830164,12.536320587638496,18.907597377564883,20.75334940641499,-1.8457520288501046,145.49851985229043,21052.85805841243,Iced Mocha (Small)
292,McDonald's,25140-240095,South Neil & Carriage Center,Company Owned,2011 S. Neil St.,Champaign,IL,US,61820,2177223209,GMT-06:00 America/Chicago,-88.25,40.09,26.497543259987182,1.548068847918835,22.03189006416626,11.356089968565936,10.675800095600323,82.85012359996338,1808.6184270760216,Iced Mocha (Medium)
293,McDonald's,13613-106969,Charleston-Lincoln & E St,Company Owned,437 W Lincoln Avenue,Charleston,IL,US,619203022,217 345 5553,GMT-06:00 America/Chicago,-88.19,39.48,46.44840845973083,11.468718328937598,19.359291797678882,19.906460768456068,-0.5471689707771875,139.85259559923094,19903.653065584276,Iced Mocha (Large)
294,McDonald's,15963-166069,Target Chicago T-2781,Licensed,1101 W Jackson Blvd,Chicago,IL,US,606072905,312-279-3340,GMT-06:00 America/Chicago,-87.65,41.88,17.08182012390515,4.021971814262539,7.550209327571356,7.320780053102206,0.22942927446915024,55.948057496871854,18803.52183599353,Iced Mocha with Nonfat Milk (Small)
295,McDonald's,2877-88641,Washington & Clinton,Company Owned,40 N. Clinton St.,Chicago,IL,US,60661,312/463-0331,GMT-06:00 America/Chicago,-87.64,41.88,37.223883785515916,10.682085684486978,12.234339928223932,15.953093050935395,-3.7187531227114627,113.49681081575977,23748.985259559922,Iced Mocha with Nonfat Milk (Medium)
296,McDonald's,202-161424,Oak & Rush,Company Owned,1003 N Rush Street,Chicago,IL,US,60611,3129515436,GMT-06:00 America/Chicago,-87.63,41.9,22.672505874813073,3.8264480952880575,13.347419830186825,9.716788232062745,3.6306315981240793,71.92144535660879,12401.959288308359,Iced Mocha with Nonfat Milk (Large)
297,McDonald's,76178-93198,Target Chicago T-1879,Licensed,4433 S Pulaski,Chicago,IL,US,606324010,773-579-2120,GMT-06:00 America/Chicago,-87.72,41.81,35.195471053193764,9.713582663927113,12.417770350426357,15.083773308511612,-2.666002958085254,107.7013458662679,22694.998016296882,Iced Caramel Mocha (Small)
298,McDonald's,75762-95258,"ORD OHare Terminal 3, Baggage Claim",Licensed,Circular Building #6,Chicago,IL,US,60666,773-686-6180,GMT-06:00 America/Chicago,-87.9,41.98,34.052552873317666,8.047665687064455,14.985586246843157,14.593951231421856,0.39163501542130114,104.43586535233618,18887.752922147283,Iced Caramel Mocha (Medium)
299,McDonald's,2659-66300,State Rd 135 & Stonegate,Company Owned,"1011 N. State Rd 135, Greenwood Park",Greenwood,IN,US,461421355,3178832772,GMT-05:00 America/Indianapolis,-86.16,39.63,46.58406323435163,12.32536376893017,17.604900413331197,19.964598529007844,-2.359698115676649,140.2401806695761,21599.993896298107,Iced Caramel Mocha (Large)
300,McDonald's,28536-249966,Teavana - Greenwood Park,Company Owned,"1251 US Highway 31 N., #C10A, Greenwood Park Mall",Greenwood,IN,US,46142,317-883-3283,GMT-05:00 America/Indianapolis,-86.13,39.63,29.03973509933775,1.778348107862518,23.9657798580667,12.445600756859035,11.520179101207667,90.1135288552507,2078.890346995453,Iced Nonfat Caramel Mocha (Small)
301,McDonald's,13529-105327,Greenwood Park Mall,Company Owned,"1251 U.S. Highway 31 North, D07, Shoppes at Meridians Market",Greenwood,IN,US,461424503,317-865-1452,GMT-05:00 America/Indianapolis,-86.12,39.63,36.95364238410597,2.7442593369964987,29.438126147349433,15.837275307473984,13.600850839875449,112.72469252601704,3329.172643208106,Iced Nonfat Caramel Mocha (Medium)
302,McDonald's,13949-109207,SR 135 & Faith,Company Owned,311 S. State Rd 135,Greenwood,IN,US,461421423,317-859-8926,GMT-05:00 America/Indianapolis,-86.16,39.61,48.5697500534074,2.8872520414297793,40.275005560125585,20.815607165746027,19.459398394379555,145.91357158116398,1906.7659535508287,Iced Nonfat Caramel Mocha (Large)
303,McDonald's,25514-241210,"Indianapolis & Interstate, Hammond",Company Owned,7843 Indianapolis Blvd,Hammond,IN,US,46324,2193020738,GMT-06:00 America/Chicago,-87.48,41.57,46.541337321085244,9.602213500125083,23.554814127966655,19.946287423322246,3.608526704644408,140.1181066316721,16006.31733146153,Frappé Mocha (Small)
304,McDonald's,76221-90437,Target Highland T-731,Licensed,10451 Indianapolis Blvd,Highland,IN,US,463223511,219-924-1527,GMT-06:00 America/Chicago,-87.47,41.52,45.00427259132664,2.60800082430618,37.46649987419997,19.287545396282848,18.178954477917124,135.72649311807612,1763.2068849757377,Frappé Mocha (Medium)
305,McDonald's,2760-77380,56th & Lafayette,Company Owned,"5550 Lafayette, Castleton Square Mall",Indianapolis,IN,US,462541697,317-328-0247,GMT-05:00 America/Indianapolis,-86.26,39.85,27.482375560777612,5.5750632828774345,14.117941316016152,11.778160954618976,2.339780361397177,85.66393017365033,15674.520096438491,Frappé Mocha (Large)
306,McDonald's,19031-196084,Castleton Square Mall Kiosk,Company Owned,6020 East 82nd Street,Indianapolis,IN,US,46250,3178427480,GMT-05:00 America/Indianapolis,-86.07,39.91,18.935056611835076,1.2125728947246965,15.509993978967342,8.115024262215032,7.3949697167523105,61.243018890957366,2347.697378460036,Frappé Caramel (Small)
307,McDonald's,13618-97252,Kessler & Michigan,Company Owned,"1950 W Kessler Blvd, Suite 1",Indianapolis,IN,US,462281880,317-257-2031,GMT-05:00 America/Indianapolis,-86.2,39.86,32.936338389233065,9.276041699706381,11.211593114309705,14.1155735953856,-2.903980481075894,101.24668111209448,23237.006744590595,Frappé Caramel (Medium)
308,McDonald's,75958-101096,Hyatt Regency-Indianapolis-Lobby,Licensed,"1 S Capitol Ave, Circle Tower Building",Indianapolis,IN,US,462042728,317-616-6106,GMT-05:00 America/Indianapolis,-86.16,39.77,33.290963469344156,9.452116000626333,11.164669729192461,14.267555772576065,-3.102886043383604,102.25989562669758,23456.740012817776,Frappé Caramel (Large)
